[
  {
    "id": "Q937",
    "name": "Albert Einstein",
    "lat": 48.398611111,
    "lng": 9.991111111,
    "deathLat": 40.352222222,
    "deathLng": -74.656944444,
    "card": {
      "image": {
        "url": "https://commons.wikimedia.org/wiki/Special:FilePath/Albert%20Einstein%20Head%20cleaned.jpg",
        "thumbUrl": "https://commons.wikimedia.org/wiki/Special:FilePath/Albert%20Einstein%20Head%20cleaned.jpg?width=400"
      },
      "summary": "German-born theoretical physicist (1879–1955)",
      "birth": {
        "date": "1879-03-14",
        "place": "Ulm"
      },
      "death": {
        "date": "1955-04-18",
        "place": "Princeton"
      },
      "facts": [
        "special relativity",
        "general relativity",
        "theory of relativity",
        "photoelectric effect",
        "Einstein field equations"
      ],
      "links": {
        "wikipedia": "https://en.wikipedia.org/wiki/Albert_Einstein",
        "wikidata": "https://www.wikidata.org/wiki/Q937"
      }
    }
  },
  {
    "id": "Q762",
    "name": "Leonardo da Vinci",
    "lat": 43.799166666,
    "lng": 10.938133333,
    "deathLat": 47.41024,
    "deathLng": 0.99204,
    "card": {
      "image": {
        "url": "https://commons.wikimedia.org/wiki/Special:FilePath/Francesco%20Melzi%20-%20Portrait%20of%20Leonardo.png",
        "thumbUrl": "https://commons.wikimedia.org/wiki/Special:FilePath/Francesco%20Melzi%20-%20Portrait%20of%20Leonardo.png?width=400"
      },
      "summary": "Italian Renaissance polymath (1452−1519)",
      "birth": {
        "date": "1452-04-24",
        "place": "Anchiano"
      },
      "death": {
        "date": "1519-05-12",
        "place": "Clos Lucé"
      },
      "facts": [
        "The Last Supper",
        "Annunciation",
        "Mona Lisa",
        "Virgin of the Rocks",
        "Saint Jerome in the Wilderness"
      ],
      "links": {
        "wikipedia": "https://en.wikipedia.org/wiki/Leonardo_da_Vinci",
        "wikidata": "https://www.wikidata.org/wiki/Q762"
      }
    }
  },
  {
    "id": "Q935",
    "name": "Isaac Newton",
    "lat": 52.809167,
    "lng": -0.630556,
    "deathLat": 51.5004,
    "deathLng": -0.1909,
    "card": {
      "image": {
        "url": "https://commons.wikimedia.org/wiki/Special:FilePath/GodfreyKneller-IsaacNewton-1689.jpg",
        "thumbUrl": "https://commons.wikimedia.org/wiki/Special:FilePath/GodfreyKneller-IsaacNewton-1689.jpg?width=400"
      },
      "summary": "English mathematician and physicist (1642–1727)",
      "birth": {
        "date": "1643-01-04",
        "place": "Woolsthorpe Manor"
      },
      "death": {
        "date": "1727-03-31",
        "place": "Kensington"
      },
      "facts": [
        "Opticks, or a Treatise of the Reflections, Refractions, Inflections and Colours of Light",
        "Philosophiæ Naturalis Principia Mathematica",
        "Method of Fluxions"
      ],
      "links": {
        "wikipedia": "https://en.wikipedia.org/wiki/Isaac_Newton",
        "wikidata": "https://www.wikidata.org/wiki/Q935"
      }
    }
  },
  {
    "id": "Q5879",
    "name": "Johann Wolfgang von Goethe",
    "lat": 50.110555555,
    "lng": 8.682222222,
    "deathLat": 50.981111111,
    "deathLng": 11.329444444,
    "card": {
      "image": {
        "url": "https://commons.wikimedia.org/wiki/Special:FilePath/Goethe%20%28Stieler%201828%29.jpg",
        "thumbUrl": "https://commons.wikimedia.org/wiki/Special:FilePath/Goethe%20%28Stieler%201828%29.jpg?width=400"
      },
      "summary": "German writer, artist, natural scientist and politician (1749–1832)",
      "birth": {
        "date": "1749-08-28",
        "place": "Frankfurt am Main"
      },
      "death": {
        "date": "1832-03-22",
        "place": "Weimar"
      },
      "facts": [
        "Faust",
        "The Sorrows of Young Werther",
        "Der Zauberlehrling",
        "Der Erlkönig",
        "Elective Affinities"
      ],
      "links": {
        "wikipedia": "https://en.wikipedia.org/wiki/Johann_Wolfgang_von_Goethe",
        "wikidata": "https://www.wikidata.org/wiki/Q5879"
      }
    }
  },
  {
    "id": "Q307",
    "name": "Galileo Galilei",
    "lat": 43.716666666,
    "lng": 10.4,
    "deathLat": 43.75485,
    "deathLng": 11.2518,
    "card": {
      "image": {
        "url": "https://commons.wikimedia.org/wiki/Special:FilePath/Galileo.arp.300pix.jpg",
        "thumbUrl": "https://commons.wikimedia.org/wiki/Special:FilePath/Galileo.arp.300pix.jpg?width=400"
      },
      "summary": "Italian polymath (1564–1642)",
      "birth": {
        "date": "1564-02-25",
        "place": "Pisa"
      },
      "death": {
        "date": "1642-01-08",
        "place": "Arcetri"
      },
      "facts": [
        "Galilean transformation",
        "equations for a falling body"
      ],
      "links": {
        "wikipedia": "https://en.wikipedia.org/wiki/Galileo_Galilei",
        "wikidata": "https://www.wikidata.org/wiki/Q307"
      }
    }
  },
  {
    "id": "Q8743",
    "name": "Thomas Edison",
    "lat": 41.29306,
    "lng": -82.60111,
    "deathLat": 40.798611111,
    "deathLng": -74.239166666,
    "card": {
      "image": {
        "url": "https://commons.wikimedia.org/wiki/Special:FilePath/Thomas%20Edison2.jpg",
        "thumbUrl": "https://commons.wikimedia.org/wiki/Special:FilePath/Thomas%20Edison2.jpg?width=400"
      },
      "summary": "American inventor and businessman (1847–1931)",
      "birth": {
        "date": "1847-02-11",
        "place": "Milan"
      },
      "death": {
        "date": "1931-10-18",
        "place": "West Orange"
      },
      "facts": [
        "incandescent light bulb",
        "phonograph"
      ],
      "links": {
        "wikipedia": "https://en.wikipedia.org/wiki/Thomas_Edison",
        "wikidata": "https://www.wikidata.org/wiki/Q8743"
      }
    }
  },
  {
    "id": "Q9312",
    "name": "Immanuel Kant",
    "lat": 54.711472222,
    "lng": 20.509305555,
    "deathLat": 54.711472222,
    "deathLng": 20.509305555,
    "card": {
      "image": {
        "url": "https://commons.wikimedia.org/wiki/Special:FilePath/Immanuel%20Kant%20-%20Gemaelde%202.jpg",
        "thumbUrl": "https://commons.wikimedia.org/wiki/Special:FilePath/Immanuel%20Kant%20-%20Gemaelde%202.jpg?width=400"
      },
      "summary": "German philosopher (1724-1804)",
      "birth": {
        "date": "1724-04-22",
        "place": "Königsberg"
      },
      "death": {
        "date": "1804-02-12",
        "place": "Königsberg"
      },
      "facts": [
        "Answering the Question: What Is Enlightenment?",
        "Critique of Pure Reason",
        "Groundwork of the Metaphysic of Morals",
        "Critique of Practical Reason",
        "Critique of Judgment"
      ],
      "links": {
        "wikipedia": "https://en.wikipedia.org/wiki/Immanuel_Kant",
        "wikidata": "https://www.wikidata.org/wiki/Q9312"
      }
    }
  },
  {
    "id": "Q9191",
    "name": "René Descartes",
    "lat": 46.973611111,
    "lng": 0.697777777,
    "deathLat": 59.329444444,
    "deathLng": 18.068611111,
    "card": {
      "image": {
        "url": "https://commons.wikimedia.org/wiki/Special:FilePath/Frans%20Hals%20-%20Portret%20van%20Ren%C3%A9%20Descartes.jpg",
        "thumbUrl": "https://commons.wikimedia.org/wiki/Special:FilePath/Frans%20Hals%20-%20Portret%20van%20Ren%C3%A9%20Descartes.jpg?width=400"
      },
      "summary": "French philosopher, mathematician, and scientist (1596–1650)",
      "birth": {
        "date": "1596-03-31",
        "place": "Descartes"
      },
      "death": {
        "date": "1650-02-11",
        "place": "Stockholm"
      },
      "facts": [
        "La Géométrie",
        "The Description of the Human Body",
        "Discourse on the Method"
      ],
      "links": {
        "wikipedia": "https://en.wikipedia.org/wiki/Ren%C3%A9_Descartes",
        "wikidata": "https://www.wikidata.org/wiki/Q9191"
      }
    }
  },
  {
    "id": "Q7186",
    "name": "Marie Curie",
    "lat": 52.23,
    "lng": 21.011111111,
    "deathLat": 45.939223821,
    "deathLng": 6.715230061,
    "card": {
      "image": {
        "url": "https://commons.wikimedia.org/wiki/Special:FilePath/Marie%20Curie%20%281900%29%20%28cropped%29.jpg",
        "thumbUrl": "https://commons.wikimedia.org/wiki/Special:FilePath/Marie%20Curie%20%281900%29%20%28cropped%29.jpg?width=400"
      },
      "summary": "Polish-French physicist and chemist (1867–1934)",
      "birth": {
        "date": "1867-11-07",
        "place": "Warsaw"
      },
      "death": {
        "date": "1934-07-04",
        "place": "Sancellemoz"
      },
      "facts": [
        "Treatise on Radioactivity"
      ],
      "links": {
        "wikipedia": "https://en.wikipedia.org/wiki/Marie_Curie",
        "wikidata": "https://www.wikidata.org/wiki/Q7186"
      }
    }
  },
  {
    "id": "Q8739",
    "name": "Archimedes",
    "lat": 37.083333,
    "lng": 15.283333,
    "deathLat": 37.083333,
    "deathLng": 15.283333,
    "card": {
      "image": {
        "url": "https://commons.wikimedia.org/wiki/Special:FilePath/Retrato%20de%20un%20erudito%20%28%C2%BFArqu%C3%ADmedes%3F%29%2C%20por%20Domenico%20Fetti.jpg",
        "thumbUrl": "https://commons.wikimedia.org/wiki/Special:FilePath/Retrato%20de%20un%20erudito%20%28%C2%BFArqu%C3%ADmedes%3F%29%2C%20por%20Domenico%20Fetti.jpg?width=400"
      },
      "summary": "Greek mathematician and physicist (c. 287 – c. 212 BC)",
      "birth": {
        "date": "-0286-01-01",
        "place": "Syracuse"
      },
      "death": {
        "date": "-0211-01-01",
        "place": "Syracuse"
      },
      "facts": [
        "Archimedean spiral",
        "claw of Archimedes",
        "Archimedes' screw",
        "Archimedes' Heptagon",
        "On the Sphere and Cylinder"
      ],
      "links": {
        "wikipedia": "https://en.wikipedia.org/wiki/Archimedes",
        "wikidata": "https://www.wikidata.org/wiki/Q8739"
      }
    }
  },
  {
    "id": "Q9036",
    "name": "Nikola Tesla",
    "lat": 44.5643,
    "lng": 15.3181,
    "deathLat": 40.712777777,
    "deathLng": -74.006111111,
    "card": {
      "image": {
        "url": "https://commons.wikimedia.org/wiki/Special:FilePath/Tesla%20circa%201890.jpeg",
        "thumbUrl": "https://commons.wikimedia.org/wiki/Special:FilePath/Tesla%20circa%201890.jpeg?width=400"
      },
      "summary": "Serbian-American engineer and inventor (1856–1943)",
      "birth": {
        "date": "1856-07-10",
        "place": "Smiljan"
      },
      "death": {
        "date": "1943-01-07",
        "place": "New York City"
      },
      "facts": [],
      "links": {
        "wikipedia": "https://en.wikipedia.org/wiki/Nikola_Tesla",
        "wikidata": "https://www.wikidata.org/wiki/Q9036"
      }
    }
  },
  {
    "id": "Q619",
    "name": "Nicolaus Copernicus",
    "lat": 53.0144,
    "lng": 18.6014,
    "deathLat": 54.358333333,
    "deathLng": 19.683333333,
    "card": {
      "image": {
        "url": "https://commons.wikimedia.org/wiki/Special:FilePath/Nikolaus%20Kopernikus%20MOT.jpg",
        "thumbUrl": "https://commons.wikimedia.org/wiki/Special:FilePath/Nikolaus%20Kopernikus%20MOT.jpg?width=400"
      },
      "summary": "Polish mathematician and astronomer (1473-1543)",
      "birth": {
        "date": "1473-02-28",
        "place": "Toruń"
      },
      "death": {
        "date": "1543-06-03",
        "place": "Frombork"
      },
      "facts": [
        "De revolutionibus orbium coelestium",
        "Commentariolus"
      ],
      "links": {
        "wikipedia": "https://en.wikipedia.org/wiki/Nicolaus_Copernicus",
        "wikidata": "https://www.wikidata.org/wiki/Q619"
      }
    }
  },
  {
    "id": "Q529",
    "name": "Louis Pasteur",
    "lat": 47.092222222,
    "lng": 5.489722222,
    "deathLat": 48.834994343,
    "deathLng": 2.178488282,
    "card": {
      "image": {
        "url": "https://commons.wikimedia.org/wiki/Special:FilePath/Louis%20Pasteur%20%281822%20-%201895%29%2C%20microbiologist%20and%20chemist%20Wellcome%20V0026980.jpg",
        "thumbUrl": "https://commons.wikimedia.org/wiki/Special:FilePath/Louis%20Pasteur%20%281822%20-%201895%29%2C%20microbiologist%20and%20chemist%20Wellcome%20V0026980.jpg?width=400"
      },
      "summary": "French chemist and microbiologist (1822-1895)",
      "birth": {
        "date": "1822-12-27",
        "place": "Dole"
      },
      "death": {
        "date": "1895-09-28",
        "place": "Castle of Villeneuve-l'Étang"
      },
      "facts": [
        "Pasteur Institute",
        "rabies vaccine"
      ],
      "links": {
        "wikipedia": "https://en.wikipedia.org/wiki/Louis_Pasteur",
        "wikidata": "https://www.wikidata.org/wiki/Q529"
      }
    }
  },
  {
    "id": "Q7416",
    "name": "Margaret Thatcher",
    "lat": 52.918055555,
    "lng": -0.638055555,
    "deathLat": 51.507222222,
    "deathLng": -0.141388888,
    "card": {
      "image": {
        "url": "https://commons.wikimedia.org/wiki/Special:FilePath/Margaret%20Thatcher%20%281983%29.jpg",
        "thumbUrl": "https://commons.wikimedia.org/wiki/Special:FilePath/Margaret%20Thatcher%20%281983%29.jpg?width=400"
      },
      "summary": "British stateswoman and prime minister (1925–2013)",
      "birth": {
        "date": "1925-10-13",
        "place": "Grantham"
      },
      "death": {
        "date": "2013-04-08",
        "place": "The Ritz London"
      },
      "facts": [],
      "links": {
        "wikipedia": "https://en.wikipedia.org/wiki/Margaret_Thatcher",
        "wikidata": "https://www.wikidata.org/wiki/Q7416"
      }
    }
  },
  {
    "id": "Q10261",
    "name": "Pythagoras",
    "lat": 37.689444,
    "lng": 26.943056,
    "deathLat": 40.383126,
    "deathLng": 16.822782,
    "card": {
      "image": {
        "url": "https://commons.wikimedia.org/wiki/Special:FilePath/Kapitolinischer%20Pythagoras.jpg",
        "thumbUrl": "https://commons.wikimedia.org/wiki/Special:FilePath/Kapitolinischer%20Pythagoras.jpg?width=400"
      },
      "summary": "Greek philosopher and mathematician (c. 570 – c. 495 BC)",
      "birth": {
        "date": "-0582-01-01",
        "place": "Samos"
      },
      "death": {
        "date": "-0490-01-01",
        "place": "Metapontum"
      },
      "facts": [
        "Pythagorean triple",
        "Pythagorean theorem",
        "Platonic solid"
      ],
      "links": {
        "wikipedia": "https://en.wikipedia.org/wiki/Pythagoras",
        "wikidata": "https://www.wikidata.org/wiki/Q10261"
      }
    }
  },
  {
    "id": "Q9047",
    "name": "Gottfried Wilhelm Leibniz",
    "lat": 51.3406321,
    "lng": 12.3747329,
    "deathLat": 52.374444444,
    "deathLng": 9.738611111,
    "card": {
      "image": {
        "url": "https://commons.wikimedia.org/wiki/Special:FilePath/Christoph%20Bernhard%20Francke%20-%20Bildnis%20des%20Philosophen%20Leibniz%20%28ca.%201695%29.jpg",
        "thumbUrl": "https://commons.wikimedia.org/wiki/Special:FilePath/Christoph%20Bernhard%20Francke%20-%20Bildnis%20des%20Philosophen%20Leibniz%20%28ca.%201695%29.jpg?width=400"
      },
      "summary": "German mathematician and philosopher (1646–1716)",
      "birth": {
        "date": "1646-07-01",
        "place": "Leipzig"
      },
      "death": {
        "date": "1716-11-14",
        "place": "Hanover"
      },
      "facts": [
        "integral calculus",
        "calculus ratiocinator",
        "New Essays on Human Understanding",
        "Discourse on Metaphysics",
        "Théodicée"
      ],
      "links": {
        "wikipedia": "https://en.wikipedia.org/wiki/Gottfried_Wilhelm_Leibniz",
        "wikidata": "https://www.wikidata.org/wiki/Q9047"
      }
    }
  },
  {
    "id": "Q6722",
    "name": "Carl Friedrich Gauss",
    "lat": 52.269166666,
    "lng": 10.521111111,
    "deathLat": 51.533888888,
    "deathLng": 9.935555555,
    "card": {
      "image": {
        "url": "https://commons.wikimedia.org/wiki/Special:FilePath/Carl%20Friedrich%20Gauss.jpg",
        "thumbUrl": "https://commons.wikimedia.org/wiki/Special:FilePath/Carl%20Friedrich%20Gauss.jpg?width=400"
      },
      "summary": "German mathematician and physicist (1777–1855)",
      "birth": {
        "date": "1777-04-30",
        "place": "Brunswick"
      },
      "death": {
        "date": "1855-02-23",
        "place": "Göttingen"
      },
      "facts": [
        "Gauss's law",
        "Gauss's law for magnetism",
        "normal distribution",
        "Disquisitiones Arithmeticae",
        "Gauss–Seidel method"
      ],
      "links": {
        "wikipedia": "https://en.wikipedia.org/wiki/Carl_Friedrich_Gauss",
        "wikidata": "https://www.wikidata.org/wiki/Q6722"
      }
    }
  },
  {
    "id": "Q1290",
    "name": "Blaise Pascal",
    "lat": 45.77841,
    "lng": 3.08526,
    "deathLat": 48.856666666,
    "deathLng": 2.352222222,
    "card": {
      "image": {
        "url": "https://commons.wikimedia.org/wiki/Special:FilePath/Blaise%20Pascal%20Versailles.JPG",
        "thumbUrl": "https://commons.wikimedia.org/wiki/Special:FilePath/Blaise%20Pascal%20Versailles.JPG?width=400"
      },
      "summary": "French mathematician, physicist, inventor, writer, and Christian philosopher (1623-1662)",
      "birth": {
        "date": "1623-06-19",
        "place": "birth house of Blaise Pascal"
      },
      "death": {
        "date": "1662-08-19",
        "place": "Paris"
      },
      "facts": [
        "Pascal's pyramid",
        "Pascal's law",
        "Pensées",
        "New experiments with the vacuum",
        "Écrits sur la grâce"
      ],
      "links": {
        "wikipedia": "https://en.wikipedia.org/wiki/Blaise_Pascal",
        "wikidata": "https://www.wikidata.org/wiki/Q1290"
      }
    }
  },
  {
    "id": "Q8011",
    "name": "Avicenna",
    "lat": 39.994444444,
    "lng": 64.379166666,
    "deathLat": 34.8,
    "deathLng": 48.516666666,
    "card": {
      "image": {
        "url": "https://commons.wikimedia.org/wiki/Special:FilePath/Pursina.jpg",
        "thumbUrl": "https://commons.wikimedia.org/wiki/Special:FilePath/Pursina.jpg?width=400"
      },
      "summary": "Persian polymath, physician and philosopher (c. 980–1037)",
      "birth": {
        "date": "0980-01-01",
        "place": "Afshona"
      },
      "death": {
        "date": "1037-06-24",
        "place": "Hamadan"
      },
      "facts": [
        "The Book of Healing",
        "Canon of Medicine",
        "Al-isharat wa al-tanbihat"
      ],
      "links": {
        "wikipedia": "https://en.wikipedia.org/wiki/Avicenna",
        "wikidata": "https://www.wikidata.org/wiki/Q8011"
      }
    }
  },
  {
    "id": "Q23810",
    "name": "Alfred Nobel",
    "lat": 59.330416666,
    "lng": 18.070555555,
    "deathLat": 43.8175,
    "deathLng": 7.775,
    "card": {
      "image": {
        "url": "https://commons.wikimedia.org/wiki/Special:FilePath/AlfredNobel2.jpg",
        "thumbUrl": "https://commons.wikimedia.org/wiki/Special:FilePath/AlfredNobel2.jpg?width=400"
      },
      "summary": "Swedish chemist and inventor (1833–1896)",
      "birth": {
        "date": "1833-10-21",
        "place": "Jakob and Johannes parish"
      },
      "death": {
        "date": "1896-12-10",
        "place": "Sanremo"
      },
      "facts": [
        "Nobel Prize",
        "dynamite"
      ],
      "links": {
        "wikipedia": "https://en.wikipedia.org/wiki/Alfred_Nobel",
        "wikidata": "https://www.wikidata.org/wiki/Q23810"
      }
    }
  },
  {
    "id": "Q7604",
    "name": "Leonhard Euler",
    "lat": 47.560555555,
    "lng": 7.590555555,
    "deathLat": 59.95,
    "deathLng": 30.316666666,
    "card": {
      "image": {
        "url": "https://commons.wikimedia.org/wiki/Special:FilePath/Leonhard%20Euler.jpg",
        "thumbUrl": "https://commons.wikimedia.org/wiki/Special:FilePath/Leonhard%20Euler.jpg?width=400"
      },
      "summary": "Swiss mathematician, physicist, and engineer (1707–1783)",
      "birth": {
        "date": "1707-04-15",
        "place": "Basel"
      },
      "death": {
        "date": "1783-09-18",
        "place": "Saint Petersburg"
      },
      "facts": [
        "Euler line",
        "Eulerian path",
        "Euler's rotation theorem",
        "Cauchy–Euler equation",
        "Euler–Mascheroni constant"
      ],
      "links": {
        "wikipedia": "https://en.wikipedia.org/wiki/Leonhard_Euler",
        "wikidata": "https://www.wikidata.org/wiki/Q7604"
      }
    }
  },
  {
    "id": "Q5580",
    "name": "Albrecht Dürer",
    "lat": 49.453888888,
    "lng": 11.0775,
    "deathLat": 49.453888888,
    "deathLng": 11.0775,
    "card": {
      "image": {
        "url": "https://commons.wikimedia.org/wiki/Special:FilePath/D%C3%BCrer%20Alte%20Pinakothek.jpg",
        "thumbUrl": "https://commons.wikimedia.org/wiki/Special:FilePath/D%C3%BCrer%20Alte%20Pinakothek.jpg?width=400"
      },
      "summary": "German painter, printmaker, mathematician, and theorist (1471-1528)",
      "birth": {
        "date": "1471-05-30",
        "place": "Nuremberg"
      },
      "death": {
        "date": "1528-04-16",
        "place": "Nuremberg"
      },
      "facts": [
        "St. Jerome in His Study",
        "The Four Apostles",
        "Melencolia I",
        "Knight, Death, and the Devil",
        "Feast of the Rosary"
      ],
      "links": {
        "wikipedia": "https://en.wikipedia.org/wiki/Albrecht_D%C3%BCrer",
        "wikidata": "https://www.wikidata.org/wiki/Q5580"
      }
    }
  },
  {
    "id": "Q33760",
    "name": "Bertrand Russell",
    "lat": 51.745061111,
    "lng": -2.7256,
    "deathLat": 52.9202,
    "deathLng": -4.0979,
    "card": {
      "image": {
        "url": "https://commons.wikimedia.org/wiki/Special:FilePath/Bertrand%20Russell%20photo.jpg",
        "thumbUrl": "https://commons.wikimedia.org/wiki/Special:FilePath/Bertrand%20Russell%20photo.jpg?width=400"
      },
      "summary": "British philosopher and logician (1872–1970)",
      "birth": {
        "date": "1872-05-18",
        "place": "Trellech"
      },
      "death": {
        "date": "1970-02-02",
        "place": "Plas Penrhyn"
      },
      "facts": [
        "Principia Mathe",
        "Power: A New Social Analysis",
        "Marriage and Morals",
        "Introduction to Mathematical Philosophy",
        "A History of Western Philosophy"
      ],
      "links": {
        "wikipedia": "https://en.wikipedia.org/wiki/Bertrand_Russell",
        "wikidata": "https://www.wikidata.org/wiki/Q33760"
      }
    }
  },
  {
    "id": "Q9317",
    "name": "John Maynard Keynes",
    "lat": 52.208055555,
    "lng": 0.1225,
    "deathLat": 50.84,
    "deathLng": 0.12,
    "card": {
      "image": {
        "url": "https://commons.wikimedia.org/wiki/Special:FilePath/Keynes%201933.jpg",
        "thumbUrl": "https://commons.wikimedia.org/wiki/Special:FilePath/Keynes%201933.jpg?width=400"
      },
      "summary": "British economist (1883–1946)",
      "birth": {
        "date": "1883-06-05",
        "place": "Cambridge"
      },
      "death": {
        "date": "1946-04-21",
        "place": "Firle"
      },
      "facts": [
        "Economic Possibilities for our Grandchildren",
        "A Treatise on Money",
        "The General Theory of Employment, Interest and Money",
        "The Economic Consequences of the Peace",
        "A Treatise on Probability"
      ],
      "links": {
        "wikipedia": "https://en.wikipedia.org/wiki/John_Maynard_Keynes",
        "wikidata": "https://www.wikidata.org/wiki/Q9317"
      }
    }
  },
  {
    "id": "Q8963",
    "name": "Johannes Kepler",
    "lat": 48.750833333,
    "lng": 8.870555555,
    "deathLat": 49.016666666,
    "deathLng": 12.083333333,
    "card": {
      "image": {
        "url": "https://commons.wikimedia.org/wiki/Special:FilePath/Johannes%20Kepler%20by%20Hans%20von%20Aachen.jpg",
        "thumbUrl": "https://commons.wikimedia.org/wiki/Special:FilePath/Johannes%20Kepler%20by%20Hans%20von%20Aachen.jpg?width=400"
      },
      "summary": "German mathematician and astronomer (1571–1630)",
      "birth": {
        "date": "1572-01-06",
        "place": "Weil der Stadt"
      },
      "death": {
        "date": "1630-11-15",
        "place": "Regensburg"
      },
      "facts": [
        "Astronomia nova",
        "Rudolphine Tables",
        "Harmonices Mundi",
        "Epitome Astronomiae Copernicanae",
        "De Cometis Libelli Tres"
      ],
      "links": {
        "wikipedia": "https://en.wikipedia.org/wiki/Johannes_Kepler",
        "wikidata": "https://www.wikidata.org/wiki/Q8963"
      }
    }
  },
  {
    "id": "Q9021",
    "name": "Max Planck",
    "lat": 54.323333333,
    "lng": 10.139444444,
    "deathLat": 51.533888888,
    "deathLng": 9.935555555,
    "card": {
      "image": {
        "url": "https://commons.wikimedia.org/wiki/Special:FilePath/Max%20Planck.png",
        "thumbUrl": "https://commons.wikimedia.org/wiki/Special:FilePath/Max%20Planck.png?width=400"
      },
      "summary": "German theoretical physicist (1858–1947)",
      "birth": {
        "date": "1858-04-23",
        "place": "Kiel"
      },
      "death": {
        "date": "1947-10-04",
        "place": "Göttingen"
      },
      "facts": [
        "Planck's law",
        "Planck constant"
      ],
      "links": {
        "wikipedia": "https://en.wikipedia.org/wiki/Max_Planck",
        "wikidata": "https://www.wikidata.org/wiki/Q9021"
      }
    }
  },
  {
    "id": "Q9106",
    "name": "Dmitri Mendeleev",
    "lat": 58.195277777,
    "lng": 68.258055555,
    "deathLat": 59.95,
    "deathLng": 30.316666666,
    "card": {
      "image": {
        "url": "https://commons.wikimedia.org/wiki/Special:FilePath/Dmitri%20Mendeleev.jpg",
        "thumbUrl": "https://commons.wikimedia.org/wiki/Special:FilePath/Dmitri%20Mendeleev.jpg?width=400"
      },
      "summary": "Russian chemist (1834–1907)",
      "birth": {
        "date": "1834-02-08",
        "place": "Tobolsk"
      },
      "death": {
        "date": "1907-02-02",
        "place": "Saint Petersburg"
      },
      "facts": [
        "periodic table"
      ],
      "links": {
        "wikipedia": "https://en.wikipedia.org/wiki/Dmitri_Mendeleev",
        "wikidata": "https://www.wikidata.org/wiki/Q9106"
      }
    }
  },
  {
    "id": "Q8750",
    "name": "Michael Faraday",
    "lat": 51.49277778,
    "lng": -0.10111111,
    "deathLat": 52.1677,
    "deathLng": -2.70414,
    "card": {
      "image": {
        "url": "https://commons.wikimedia.org/wiki/Special:FilePath/M%20Faraday%20Th%20Phillips%20oil%201842.jpg",
        "thumbUrl": "https://commons.wikimedia.org/wiki/Special:FilePath/M%20Faraday%20Th%20Phillips%20oil%201842.jpg?width=400"
      },
      "summary": "British scientist (1791–1867)",
      "birth": {
        "date": "1791-09-22",
        "place": "Newington Butts"
      },
      "death": {
        "date": "1867-08-25",
        "place": "Hampton Castle"
      },
      "facts": [],
      "links": {
        "wikipedia": "https://en.wikipedia.org/wiki/Michael_Faraday",
        "wikidata": "https://www.wikidata.org/wiki/Q8750"
      }
    }
  },
  {
    "id": "Q6109517",
    "name": "Leo XIV",
    "lat": 41.881944444,
    "lng": -87.627777777,
    "card": {
      "image": {
        "url": "https://commons.wikimedia.org/wiki/Special:FilePath/Leo%20XIV%20%2813%20October%202025%29.jpg",
        "thumbUrl": "https://commons.wikimedia.org/wiki/Special:FilePath/Leo%20XIV%20%2813%20October%202025%29.jpg?width=400"
      },
      "summary": "267th Pope of the Catholic Church (2025–)",
      "birth": {
        "date": "1955-09-14",
        "place": "Chicago"
      },
      "facts": [],
      "links": {
        "wikipedia": "https://en.wikipedia.org/wiki/Pope_Leo_XIV",
        "wikidata": "https://www.wikidata.org/wiki/Q6109517"
      }
    }
  },
  {
    "id": "Q9391",
    "name": "Ludwig Wittgenstein",
    "lat": 48.2378,
    "lng": 16.2861,
    "deathLat": 52.208055555,
    "deathLng": 0.1225,
    "card": {
      "image": {
        "url": "https://commons.wikimedia.org/wiki/Special:FilePath/Ludwig%20Wittgenstein.jpg",
        "thumbUrl": "https://commons.wikimedia.org/wiki/Special:FilePath/Ludwig%20Wittgenstein.jpg?width=400"
      },
      "summary": "Austrian philosopher and logician (1889–1951)",
      "birth": {
        "date": "1889-04-26",
        "place": "Neuwaldegg"
      },
      "death": {
        "date": "1951-04-29",
        "place": "Cambridge"
      },
      "facts": [
        "Philosophical Investigations"
      ],
      "links": {
        "wikipedia": "https://en.wikipedia.org/wiki/Ludwig_Wittgenstein",
        "wikidata": "https://www.wikidata.org/wiki/Q9391"
      }
    }
  },
  {
    "id": "Q9123",
    "name": "Ernest Rutherford",
    "lat": -41.388,
    "lng": 173.079,
    "deathLat": 52.208055555,
    "deathLng": 0.1225,
    "card": {
      "image": {
        "url": "https://commons.wikimedia.org/wiki/Special:FilePath/Ernest%20Rutherford%20LOC.jpg",
        "thumbUrl": "https://commons.wikimedia.org/wiki/Special:FilePath/Ernest%20Rutherford%20LOC.jpg?width=400"
      },
      "summary": "New Zealand physicist (1871–1937)",
      "birth": {
        "date": "1871-08-30",
        "place": "Spring Grove"
      },
      "death": {
        "date": "1937-10-19",
        "place": "Cambridge"
      },
      "facts": [],
      "links": {
        "wikipedia": "https://en.wikipedia.org/wiki/Ernest_Rutherford",
        "wikidata": "https://www.wikidata.org/wiki/Q9123"
      }
    }
  },
  {
    "id": "Q8753",
    "name": "Enrico Fermi",
    "lat": 41.893055555,
    "lng": 12.482777777,
    "deathLat": 41.881944444,
    "deathLng": -87.627777777,
    "card": {
      "image": {
        "url": "https://commons.wikimedia.org/wiki/Special:FilePath/Enrico%20Fermi%201943-49.jpg",
        "thumbUrl": "https://commons.wikimedia.org/wiki/Special:FilePath/Enrico%20Fermi%201943-49.jpg?width=400"
      },
      "summary": "Italian–American physicist (1901–1954)",
      "birth": {
        "date": "1901-09-29",
        "place": "Rome"
      },
      "death": {
        "date": "1954-11-28",
        "place": "Chicago"
      },
      "facts": [
        "Fermi paradox",
        "Fermi's interaction",
        "Fermi–Dirac statistics",
        "Fermi–Pasta–Ulam–Tsingou problem",
        "Fermi problem"
      ],
      "links": {
        "wikipedia": "https://en.wikipedia.org/wiki/Enrico_Fermi",
        "wikidata": "https://www.wikidata.org/wiki/Q8753"
      }
    }
  },
  {
    "id": "Q35900",
    "name": "Omar Khayyám",
    "lat": 36.213333333,
    "lng": 58.795833333,
    "deathLat": 36.213333333,
    "deathLng": 58.795833333,
    "card": {
      "image": {
        "url": "https://commons.wikimedia.org/wiki/Special:FilePath/Omar%20Khayyam2.JPG",
        "thumbUrl": "https://commons.wikimedia.org/wiki/Special:FilePath/Omar%20Khayyam2.JPG?width=400"
      },
      "summary": "Persian mathematician and poet (1048–1131)",
      "birth": {
        "date": "1048-05-24",
        "place": "Nishapur"
      },
      "death": {
        "date": "1131-12-11",
        "place": "Nishapur"
      },
      "facts": [
        "Solar Hijri calendar",
        "Rubáiyát of Omar Khayyám"
      ],
      "links": {
        "wikipedia": "https://en.wikipedia.org/wiki/Omar_Khayyam",
        "wikidata": "https://www.wikidata.org/wiki/Q35900"
      }
    }
  },
  {
    "id": "Q41585",
    "name": "David Hilbert",
    "lat": 54.716666666,
    "lng": 20.5,
    "deathLat": 51.533888888,
    "deathLng": 9.935555555,
    "card": {
      "image": {
        "url": "https://commons.wikimedia.org/wiki/Special:FilePath/Hilbert.jpg",
        "thumbUrl": "https://commons.wikimedia.org/wiki/Special:FilePath/Hilbert.jpg?width=400"
      },
      "summary": "German mathematician (1862–1943)",
      "birth": {
        "date": "1862-01-23",
        "place": "Kaliningrad"
      },
      "death": {
        "date": "1943-02-14",
        "place": "Göttingen"
      },
      "facts": [
        "Hilbert's basis theorem",
        "Geometry and the Imagination"
      ],
      "links": {
        "wikipedia": "https://en.wikipedia.org/wiki/David_Hilbert",
        "wikidata": "https://www.wikidata.org/wiki/Q41585"
      }
    }
  },
  {
    "id": "Q9130",
    "name": "Erwin Schrödinger",
    "lat": 48.208333333,
    "lng": 16.3725,
    "deathLat": 48.208333333,
    "deathLng": 16.3725,
    "card": {
      "image": {
        "url": "https://commons.wikimedia.org/wiki/Special:FilePath/Erwin%20Schr%C3%B6dinger%20-%20Narodowe%20Archiwum%20Cyfrowe%20%281-E-939%29.jpg",
        "thumbUrl": "https://commons.wikimedia.org/wiki/Special:FilePath/Erwin%20Schr%C3%B6dinger%20-%20Narodowe%20Archiwum%20Cyfrowe%20%281-E-939%29.jpg?width=400"
      },
      "summary": "Austrian physicist (1887–1961)",
      "birth": {
        "date": "1887-08-12",
        "place": "Vienna"
      },
      "death": {
        "date": "1961-01-04",
        "place": "Vienna"
      },
      "facts": [
        "Schrödinger's cat",
        "Schrödinger equation"
      ],
      "links": {
        "wikipedia": "https://en.wikipedia.org/wiki/Erwin_Schr%C3%B6dinger",
        "wikidata": "https://www.wikidata.org/wiki/Q9130"
      }
    }
  },
  {
    "id": "Q80",
    "name": "Tim Berners-Lee",
    "lat": 51.507222222,
    "lng": -0.1275,
    "card": {
      "image": {
        "url": "https://commons.wikimedia.org/wiki/Special:FilePath/LS3%204919%20%28cropped%29.jpg",
        "thumbUrl": "https://commons.wikimedia.org/wiki/Special:FilePath/LS3%204919%20%28cropped%29.jpg?width=400"
      },
      "summary": "English computer scientist (born 1955)",
      "birth": {
        "date": "1955-06-08",
        "place": "London"
      },
      "facts": [
        "Semantic Web",
        "URL",
        "HTML",
        "World Wide Web",
        "WorldWideWeb"
      ],
      "links": {
        "wikipedia": "https://en.wikipedia.org/wiki/Tim_Berners-Lee",
        "wikidata": "https://www.wikidata.org/wiki/Q80"
      }
    }
  },
  {
    "id": "Q37621",
    "name": "Thomas Hobbes",
    "lat": 51.5854,
    "lng": -2.10135,
    "deathLat": 53.168777,
    "deathLng": -1.308742,
    "card": {
      "image": {
        "url": "https://commons.wikimedia.org/wiki/Special:FilePath/Thomas%20Hobbes%20%28portrait%29.jpg",
        "thumbUrl": "https://commons.wikimedia.org/wiki/Special:FilePath/Thomas%20Hobbes%20%28portrait%29.jpg?width=400"
      },
      "summary": "English philosopher (1588–1679)",
      "birth": {
        "date": "1588-04-05",
        "place": "Westport"
      },
      "death": {
        "date": "1679-12-04",
        "place": "Hardwick Hall"
      },
      "facts": [
        "Leviathan",
        "De Corpore",
        "De Homine",
        "De Cive"
      ],
      "links": {
        "wikipedia": "https://en.wikipedia.org/wiki/Thomas_Hobbes",
        "wikidata": "https://www.wikidata.org/wiki/Q37621"
      }
    }
  },
  {
    "id": "Q9095",
    "name": "James Clerk Maxwell",
    "lat": 55.953333333,
    "lng": -3.189166666,
    "deathLat": 52.208055555,
    "deathLng": 0.1225,
    "card": {
      "image": {
        "url": "https://commons.wikimedia.org/wiki/Special:FilePath/James-Clerk-Maxwell-1831-1879.jpg",
        "thumbUrl": "https://commons.wikimedia.org/wiki/Special:FilePath/James-Clerk-Maxwell-1831-1879.jpg?width=400"
      },
      "summary": "Scottish physicist (1831–1879)",
      "birth": {
        "date": "1831-06-13",
        "place": "Edinburgh"
      },
      "death": {
        "date": "1879-11-05",
        "place": "Cambridge"
      },
      "facts": [
        "Maxwell's demon",
        "Maxwell's equations",
        "Maxwell–Boltzmann statistics"
      ],
      "links": {
        "wikipedia": "https://en.wikipedia.org/wiki/James_Clerk_Maxwell",
        "wikidata": "https://www.wikidata.org/wiki/Q9095"
      }
    }
  },
  {
    "id": "Q9041",
    "name": "James Watt",
    "lat": 55.95,
    "lng": -4.766666666,
    "deathLat": 52.5058,
    "deathLng": -1.9155,
    "card": {
      "image": {
        "url": "https://commons.wikimedia.org/wiki/Special:FilePath/James%20Watt%20by%20Henry%20Howard.jpg",
        "thumbUrl": "https://commons.wikimedia.org/wiki/Special:FilePath/James%20Watt%20by%20Henry%20Howard.jpg?width=400"
      },
      "summary": "British engineer (1736–1819)",
      "birth": {
        "date": "1736-01-19",
        "place": "Greenock"
      },
      "death": {
        "date": "1819-08-25",
        "place": "Heathfield Hall"
      },
      "facts": [],
      "links": {
        "wikipedia": "https://en.wikipedia.org/wiki/James_Watt",
        "wikidata": "https://www.wikidata.org/wiki/Q9041"
      }
    }
  },
  {
    "id": "Q35149",
    "name": "Wilhelm Röntgen",
    "lat": 51.192591666,
    "lng": 7.257091666,
    "deathLat": 48.1375,
    "deathLng": 11.575,
    "card": {
      "image": {
        "url": "https://commons.wikimedia.org/wiki/Special:FilePath/Wilhelm%20Conrad%20R%C3%B6ntgen%20%281888-1900%29%2C%2088374%20p.jpg",
        "thumbUrl": "https://commons.wikimedia.org/wiki/Special:FilePath/Wilhelm%20Conrad%20R%C3%B6ntgen%20%281888-1900%29%2C%2088374%20p.jpg?width=400"
      },
      "summary": "German physicist (1845–1923)",
      "birth": {
        "date": "1845-03-27",
        "place": "Lennep"
      },
      "death": {
        "date": "1923-02-10",
        "place": "Munich"
      },
      "facts": [
        "X-ray"
      ],
      "links": {
        "wikipedia": "https://en.wikipedia.org/wiki/Wilhelm_R%C3%B6ntgen",
        "wikidata": "https://www.wikidata.org/wiki/Q35149"
      }
    }
  },
  {
    "id": "Q38082",
    "name": "Lewis Carroll",
    "lat": 53.340222222,
    "lng": -2.633194444,
    "deathLat": 51.233552,
    "deathLng": -0.572443,
    "card": {
      "image": {
        "url": "https://commons.wikimedia.org/wiki/Special:FilePath/LewisCarrollSelfPhoto.jpg",
        "thumbUrl": "https://commons.wikimedia.org/wiki/Special:FilePath/LewisCarrollSelfPhoto.jpg?width=400"
      },
      "summary": "British author and scholar (1832–1898)",
      "birth": {
        "date": "1832-01-27",
        "place": "Daresbury"
      },
      "death": {
        "date": "1898-01-14",
        "place": "The Chestnuts"
      },
      "facts": [
        "Through the Looking-Glass",
        "Alice's Adventures in Wonderland",
        "nyctography",
        "The Nursery \"Alice\"",
        "Euclid and his Modern Rivals"
      ],
      "links": {
        "wikipedia": "https://en.wikipedia.org/wiki/Lewis_Carroll",
        "wikidata": "https://www.wikidata.org/wiki/Q38082"
      }
    }
  },
  {
    "id": "Q41980",
    "name": "Democritus",
    "lat": 37.530233,
    "lng": 27.278369,
    "deathLat": 38.5,
    "deathLng": 23,
    "card": {
      "image": {
        "url": "https://commons.wikimedia.org/wiki/Special:FilePath/Unknown%20greek%20pushkin.jpg",
        "thumbUrl": "https://commons.wikimedia.org/wiki/Special:FilePath/Unknown%20greek%20pushkin.jpg?width=400"
      },
      "summary": "Greek philosopher (c. 460–c. 370 BC)",
      "birth": {
        "date": "-0460-01-01",
        "place": "Miletus"
      },
      "death": {
        "date": "-0360-01-01",
        "place": "Greece"
      },
      "facts": [
        "quadratrix of Hippias"
      ],
      "links": {
        "wikipedia": "https://en.wikipedia.org/wiki/Democritus",
        "wikidata": "https://www.wikidata.org/wiki/Q41980"
      }
    }
  },
  {
    "id": "Q36330",
    "name": "Giordano Bruno",
    "lat": 40.925875,
    "lng": 14.528564,
    "deathLat": 41.893055555,
    "deathLng": 12.482777777,
    "card": {
      "image": {
        "url": "https://commons.wikimedia.org/wiki/Special:FilePath/Portrait%20of%20Giordano%20Bruno%20in%20%22Opere%22%20Wellcome%20L0015152%20%28cropped%29.jpg",
        "thumbUrl": "https://commons.wikimedia.org/wiki/Special:FilePath/Portrait%20of%20Giordano%20Bruno%20in%20%22Opere%22%20Wellcome%20L0015152%20%28cropped%29.jpg?width=400"
      },
      "summary": "Italian Dominican friar, philosopher and mathematician (1548–1600)",
      "birth": {
        "date": "1548-01-01",
        "place": "Nola"
      },
      "death": {
        "date": "1600-02-17",
        "place": "Rome"
      },
      "facts": [],
      "links": {
        "wikipedia": "https://en.wikipedia.org/wiki/Giordano_Bruno",
        "wikidata": "https://www.wikidata.org/wiki/Q36330"
      }
    }
  },
  {
    "id": "Q41155",
    "name": "Heraclitus",
    "lat": 37.939722,
    "lng": 27.340833,
    "deathLat": 37.939722,
    "deathLng": 27.340833,
    "card": {
      "image": {
        "url": "https://commons.wikimedia.org/wiki/Special:FilePath/Ca%27%20Rezzonico%20-%20Eraclito%201705%20-%20Giuseppe%20Torretti.jpg",
        "thumbUrl": "https://commons.wikimedia.org/wiki/Special:FilePath/Ca%27%20Rezzonico%20-%20Eraclito%201705%20-%20Giuseppe%20Torretti.jpg?width=400"
      },
      "summary": "Greek philosopher (late 6th/early 5th-century BC)",
      "birth": {
        "date": "-0534-01-01",
        "place": "Ephesus"
      },
      "death": {
        "date": "-0470-01-01",
        "place": "Ephesus"
      },
      "facts": [],
      "links": {
        "wikipedia": "https://en.wikipedia.org/wiki/Heraclitus",
        "wikidata": "https://www.wikidata.org/wiki/Q41155"
      }
    }
  },
  {
    "id": "Q410",
    "name": "Carl Sagan",
    "lat": 40.650833333,
    "lng": -73.949722222,
    "deathLat": 47.605,
    "deathLng": -122.33,
    "card": {
      "image": {
        "url": "https://commons.wikimedia.org/wiki/Special:FilePath/Carl%20Sagan%20Planetary%20Society.JPG",
        "thumbUrl": "https://commons.wikimedia.org/wiki/Special:FilePath/Carl%20Sagan%20Planetary%20Society.JPG?width=400"
      },
      "summary": "American astrophysicist, cosmologist and author (1934–1996)",
      "birth": {
        "date": "1934-11-09",
        "place": "Brooklyn"
      },
      "death": {
        "date": "1996-12-20",
        "place": "Seattle"
      },
      "facts": [
        "Contact",
        "The Demon-Haunted World",
        "Cosmos: A Personal Voyage",
        "Broca's Brain: Reflections on the Romance of Science",
        "Pale Blue Dot"
      ],
      "links": {
        "wikipedia": "https://en.wikipedia.org/wiki/Carl_Sagan",
        "wikidata": "https://www.wikidata.org/wiki/Q410"
      }
    }
  },
  {
    "id": "Q9372",
    "name": "Sima Qian",
    "lat": 35.59136,
    "lng": 110.70598,
    "deathLat": 35.844722222,
    "deathLng": 103.451944444,
    "card": {
      "image": {
        "url": "https://commons.wikimedia.org/wiki/Special:FilePath/Si%20maqian.jpg",
        "thumbUrl": "https://commons.wikimedia.org/wiki/Special:FilePath/Si%20maqian.jpg?width=400"
      },
      "summary": "2nd-century BCE Chinese historian and writer",
      "birth": {
        "date": "-0144-01-01",
        "place": "Hejin"
      },
      "death": {
        "date": "-0085-01-01",
        "place": "People's Republic of China"
      },
      "facts": [
        "Records of the Grand Historian"
      ],
      "links": {
        "wikipedia": "https://en.wikipedia.org/wiki/Sima_Qian",
        "wikidata": "https://www.wikidata.org/wiki/Q9372"
      }
    }
  },
  {
    "id": "Q34943",
    "name": "Ptolemy",
    "lat": 26.476944444,
    "lng": 31.803611111,
    "deathLat": 31.1975,
    "deathLng": 29.8925,
    "card": {
      "image": {
        "url": "https://commons.wikimedia.org/wiki/Special:FilePath/PSM%20V78%20D326%20Ptolemy.png",
        "thumbUrl": "https://commons.wikimedia.org/wiki/Special:FilePath/PSM%20V78%20D326%20Ptolemy.png?width=400"
      },
      "summary": "2nd-century Roman mathematician, astronomer, geographer",
      "birth": {
        "date": "0100-01-01",
        "place": "Ptolemais Hermiou"
      },
      "death": {
        "date": "0170-01-01",
        "place": "Alexandria"
      },
      "facts": [
        "Tetrabiblos",
        "equant",
        "Ptolemy's theorem",
        "Geography",
        "Ptolemy's inequality"
      ],
      "links": {
        "wikipedia": "https://en.wikipedia.org/wiki/Ptolemy",
        "wikidata": "https://www.wikidata.org/wiki/Q34943"
      }
    }
  },
  {
    "id": "Q37970",
    "name": "Gregor Mendel",
    "lat": 49.618888888,
    "lng": 17.835277777,
    "deathLat": 49.195277777,
    "deathLng": 16.608333333,
    "card": {
      "image": {
        "url": "https://commons.wikimedia.org/wiki/Special:FilePath/Gregor%20Mendel%202.jpg",
        "thumbUrl": "https://commons.wikimedia.org/wiki/Special:FilePath/Gregor%20Mendel%202.jpg?width=400"
      },
      "summary": "Moravian scientist and Augustinian friar (1822–1884)",
      "birth": {
        "date": "1822-07-20",
        "place": "Hynčice"
      },
      "death": {
        "date": "1884-01-06",
        "place": "Brno"
      },
      "facts": [],
      "links": {
        "wikipedia": "https://en.wikipedia.org/wiki/Gregor_Mendel",
        "wikidata": "https://www.wikidata.org/wiki/Q37970"
      }
    }
  },
  {
    "id": "Q8962",
    "name": "James Prescott Joule",
    "lat": 53.482777777,
    "lng": -2.293055555,
    "deathLat": 53.424,
    "deathLng": -2.322,
    "card": {
      "image": {
        "url": "https://commons.wikimedia.org/wiki/Special:FilePath/SS-joule.jpg",
        "thumbUrl": "https://commons.wikimedia.org/wiki/Special:FilePath/SS-joule.jpg?width=400"
      },
      "summary": "English physicist and brewer (1818–1889)",
      "birth": {
        "date": "1818-12-24",
        "place": "Salford"
      },
      "death": {
        "date": "1889-10-11",
        "place": "Sale"
      },
      "facts": [
        "thermodynamics"
      ],
      "links": {
        "wikipedia": "https://en.wikipedia.org/wiki/James_Prescott_Joule",
        "wikidata": "https://www.wikidata.org/wiki/Q8962"
      }
    }
  },
  {
    "id": "Q12718",
    "name": "Auguste Comte",
    "lat": 43.610919444,
    "lng": 3.877230555,
    "deathLat": 48.856666666,
    "deathLng": 2.352222222,
    "card": {
      "image": {
        "url": "https://commons.wikimedia.org/wiki/Special:FilePath/Portrait%20dAuguste%20Comte%20%28maison%20dA.%20Comte%2C%20Paris%29%20%282424895050%29.jpg",
        "thumbUrl": "https://commons.wikimedia.org/wiki/Special:FilePath/Portrait%20dAuguste%20Comte%20%28maison%20dA.%20Comte%2C%20Paris%29%20%282424895050%29.jpg?width=400"
      },
      "summary": "French philosopher, mathematician and sociologist (1798–1857)",
      "birth": {
        "date": "1798-01-19",
        "place": "Montpellier"
      },
      "death": {
        "date": "1857-09-05",
        "place": "Paris"
      },
      "facts": [],
      "links": {
        "wikipedia": "https://en.wikipedia.org/wiki/Auguste_Comte",
        "wikidata": "https://www.wikidata.org/wiki/Q12718"
      }
    }
  },
  {
    "id": "Q7259",
    "name": "Ada Lovelace",
    "lat": 51.507222222,
    "lng": -0.1275,
    "deathLat": 51.5177,
    "deathLng": -0.147,
    "card": {
      "image": {
        "url": "https://commons.wikimedia.org/wiki/Special:FilePath/Ada%20Byron%20daguerreotype%20by%20Antoine%20Claudet%201843%20or%201850%20-%20cropped.png",
        "thumbUrl": "https://commons.wikimedia.org/wiki/Special:FilePath/Ada%20Byron%20daguerreotype%20by%20Antoine%20Claudet%201843%20or%201850%20-%20cropped.png?width=400"
      },
      "summary": "English mathematician (1815–1852)",
      "birth": {
        "date": "1815-12-10",
        "place": "London"
      },
      "death": {
        "date": "1852-11-27",
        "place": "Marylebone"
      },
      "facts": [],
      "links": {
        "wikipedia": "https://en.wikipedia.org/wiki/Ada_Lovelace",
        "wikidata": "https://www.wikidata.org/wiki/Q7259"
      }
    }
  },
  {
    "id": "Q8772",
    "name": "Joseph Fourier",
    "lat": 47.7975,
    "lng": 3.566944444,
    "deathLat": 48.856666666,
    "deathLng": 2.352222222,
    "card": {
      "image": {
        "url": "https://commons.wikimedia.org/wiki/Special:FilePath/Fourier2.jpg",
        "thumbUrl": "https://commons.wikimedia.org/wiki/Special:FilePath/Fourier2.jpg?width=400"
      },
      "summary": "French mathematician and physicist (1768 – 1830)",
      "birth": {
        "date": "1768-03-21",
        "place": "Auxerre"
      },
      "death": {
        "date": "1830-05-16",
        "place": "Paris"
      },
      "facts": [
        "Fourier number for heat transfer",
        "Fourier series",
        "heat equation",
        "Fourier transform",
        "Théorie analytique de la chaleur"
      ],
      "links": {
        "wikipedia": "https://en.wikipedia.org/wiki/Joseph_Fourier",
        "wikidata": "https://www.wikidata.org/wiki/Q8772"
      }
    }
  },
  {
    "id": "Q37463",
    "name": "Pierre Curie",
    "lat": 48.856666666,
    "lng": 2.352222222,
    "deathLat": 48.856666666,
    "deathLng": 2.352222222,
    "card": {
      "image": {
        "url": "https://commons.wikimedia.org/wiki/Special:FilePath/Pierre%20Curie%20by%20Dujardin%20c1906.jpg",
        "thumbUrl": "https://commons.wikimedia.org/wiki/Special:FilePath/Pierre%20Curie%20by%20Dujardin%20c1906.jpg?width=400"
      },
      "summary": "French physicist (1859–1906)",
      "birth": {
        "date": "1859-05-15",
        "place": "Paris"
      },
      "death": {
        "date": "1906-04-19",
        "place": "Paris"
      },
      "facts": [
        "radioactivity",
        "piezoelectricity"
      ],
      "links": {
        "wikipedia": "https://en.wikipedia.org/wiki/Pierre_Curie",
        "wikidata": "https://www.wikidata.org/wiki/Q37463"
      }
    }
  },
  {
    "id": "Q81082",
    "name": "Henri Poincaré",
    "lat": 48.692777777,
    "lng": 6.183611111,
    "deathLat": 48.856666666,
    "deathLng": 2.352222222,
    "card": {
      "image": {
        "url": "https://commons.wikimedia.org/wiki/Special:FilePath/Henri%20Poincar%C3%A9-2.jpg",
        "thumbUrl": "https://commons.wikimedia.org/wiki/Special:FilePath/Henri%20Poincar%C3%A9-2.jpg?width=400"
      },
      "summary": "French mathematician, physicist and engineer (1854–1912)",
      "birth": {
        "date": "1854-04-29",
        "place": "Nancy"
      },
      "death": {
        "date": "1912-07-17",
        "place": "Paris"
      },
      "facts": [
        "Poincaré conjecture",
        "Poincaré recurrence theorem",
        "Poincaré group",
        "Poincaré–Bendixson theorem",
        "Poincaré map"
      ],
      "links": {
        "wikipedia": "https://en.wikipedia.org/wiki/Henri_Poincar%C3%A9",
        "wikidata": "https://www.wikidata.org/wiki/Q81082"
      }
    }
  },
  {
    "id": "Q36488",
    "name": "Guglielmo Marconi",
    "lat": 44.493888888,
    "lng": 11.342777777,
    "deathLat": 41.893055555,
    "deathLng": 12.482777777,
    "card": {
      "image": {
        "url": "https://commons.wikimedia.org/wiki/Special:FilePath/Guglielmo%20Marconi.jpg",
        "thumbUrl": "https://commons.wikimedia.org/wiki/Special:FilePath/Guglielmo%20Marconi.jpg?width=400"
      },
      "summary": "Italian inventor and radio pioneer (1874-1937)",
      "birth": {
        "date": "1874-04-25",
        "place": "Bologna"
      },
      "death": {
        "date": "1937-07-20",
        "place": "Rome"
      },
      "facts": [
        "Vatican Radio"
      ],
      "links": {
        "wikipedia": "https://en.wikipedia.org/wiki/Guglielmo_Marconi",
        "wikidata": "https://www.wikidata.org/wiki/Q36488"
      }
    }
  },
  {
    "id": "Q132537",
    "name": "Robert Oppenheimer",
    "lat": 40.728333333,
    "lng": -73.994166666,
    "deathLat": 40.352222222,
    "deathLng": -74.656944444,
    "card": {
      "image": {
        "url": "https://commons.wikimedia.org/wiki/Special:FilePath/Oppenheimer%20%28cropped%29.jpg",
        "thumbUrl": "https://commons.wikimedia.org/wiki/Special:FilePath/Oppenheimer%20%28cropped%29.jpg?width=400"
      },
      "summary": "American theoretical physicist (1904–1967)",
      "birth": {
        "date": "1904-04-22",
        "place": "Manhattan"
      },
      "death": {
        "date": "1967-02-18",
        "place": "Princeton"
      },
      "facts": [
        "nuclear bomb"
      ],
      "links": {
        "wikipedia": "https://en.wikipedia.org/wiki/J._Robert_Oppenheimer",
        "wikidata": "https://www.wikidata.org/wiki/Q132537"
      }
    }
  },
  {
    "id": "Q47087",
    "name": "Arthur C. Clarke",
    "lat": 51.2038,
    "lng": -3.4738,
    "deathLat": 6.926666666,
    "deathLng": 79.860555555,
    "card": {
      "image": {
        "url": "https://commons.wikimedia.org/wiki/Special:FilePath/Arthur%20C.%20Clarke%201965.jpg",
        "thumbUrl": "https://commons.wikimedia.org/wiki/Special:FilePath/Arthur%20C.%20Clarke%201965.jpg?width=400"
      },
      "summary": "British science fiction writer, inventor, and futurist (1917–2008)",
      "birth": {
        "date": "1917-12-16",
        "place": "Minehead"
      },
      "death": {
        "date": "2008-03-19",
        "place": "Colombo"
      },
      "facts": [
        "2061: Odyssey Three",
        "3001: The Final Odyssey",
        "Rendezvous with Rama",
        "The Fountains of Paradise",
        "2010: Odyssey Two"
      ],
      "links": {
        "wikipedia": "https://en.wikipedia.org/wiki/Arthur_C._Clarke",
        "wikidata": "https://www.wikidata.org/wiki/Q47087"
      }
    }
  },
  {
    "id": "Q81244",
    "name": "Karl Popper",
    "lat": 48.208333333,
    "lng": 16.3725,
    "deathLat": 51.3242,
    "deathLng": -0.0969,
    "card": {
      "image": {
        "url": "https://commons.wikimedia.org/wiki/Special:FilePath/Karl%20Popper.jpg",
        "thumbUrl": "https://commons.wikimedia.org/wiki/Special:FilePath/Karl%20Popper.jpg?width=400"
      },
      "summary": "Austrian-British philosopher of science and social and política e falsificationism and for criticism of Plato, Hegel and Marx as totalitarian opponents of open society (1902-1994)",
      "birth": {
        "date": "1902-07-28",
        "place": "Vienna"
      },
      "death": {
        "date": "1994-09-17",
        "place": "Kenley"
      },
      "facts": [
        "Unended Quest",
        "The Self and Its Brain",
        "Objective Knowledge",
        "Conjectures and Refutations",
        "The Poverty of Historicism"
      ],
      "links": {
        "wikipedia": "https://en.wikipedia.org/wiki/Karl_Popper",
        "wikidata": "https://www.wikidata.org/wiki/Q81244"
      }
    }
  },
  {
    "id": "Q39607",
    "name": "Antoine Lavoisier",
    "lat": 48.856666666,
    "lng": 2.352222222,
    "deathLat": 48.8656331,
    "deathLng": 2.3212357,
    "card": {
      "image": {
        "url": "https://commons.wikimedia.org/wiki/Special:FilePath/David%20-%20Portrait%20of%20Monsieur%20Lavoisier%20%28cropped%29.jpg",
        "thumbUrl": "https://commons.wikimedia.org/wiki/Special:FilePath/David%20-%20Portrait%20of%20Monsieur%20Lavoisier%20%28cropped%29.jpg?width=400"
      },
      "summary": "French nobleman and chemist (1743–1794)",
      "birth": {
        "date": "1743-08-26",
        "place": "Paris"
      },
      "death": {
        "date": "1794-05-08",
        "place": "place de la Concorde"
      },
      "facts": [
        "conservation of mass",
        "Méthode de nomenclature chimique",
        "Traité Élémentaire de Chimie"
      ],
      "links": {
        "wikipedia": "https://en.wikipedia.org/wiki/Antoine_Lavoisier",
        "wikidata": "https://www.wikidata.org/wiki/Q39607"
      }
    }
  },
  {
    "id": "Q44481",
    "name": "Pierre-Simon Laplace",
    "lat": 49.278333333,
    "lng": 0.109722222,
    "deathLat": 48.856666666,
    "deathLng": 2.352222222,
    "card": {
      "image": {
        "url": "https://commons.wikimedia.org/wiki/Special:FilePath/Pierre-Simon%2C%20marquis%20de%20Laplace%20%281745-1827%29%20-%20Gu%C3%A9rin.jpg",
        "thumbUrl": "https://commons.wikimedia.org/wiki/Special:FilePath/Pierre-Simon%2C%20marquis%20de%20Laplace%20%281745-1827%29%20-%20Gu%C3%A9rin.jpg?width=400"
      },
      "summary": "French mathematician and astronomer (1749–1827)",
      "birth": {
        "date": "1749-03-23",
        "place": "Beaumont-en-Auge"
      },
      "death": {
        "date": "1827-03-05",
        "place": "Paris"
      },
      "facts": [
        "Laplace's demon",
        "Laplace operator",
        "Laplace–Runge–Lenz vector",
        "Laplace's equation",
        "Laplace number"
      ],
      "links": {
        "wikipedia": "https://en.wikipedia.org/wiki/Pierre-Simon_Laplace",
        "wikidata": "https://www.wikidata.org/wiki/Q44481"
      }
    }
  },
  {
    "id": "Q37193",
    "name": "Robert Koch",
    "lat": 51.80361111,
    "lng": 10.33305556,
    "deathLat": 48.761944444,
    "deathLng": 8.240833333,
    "card": {
      "image": {
        "url": "https://commons.wikimedia.org/wiki/Special:FilePath/Robert%20Koch.jpg",
        "thumbUrl": "https://commons.wikimedia.org/wiki/Special:FilePath/Robert%20Koch.jpg?width=400"
      },
      "summary": "German physician, bacteriologist (1843–1910)",
      "birth": {
        "date": "1843-12-11",
        "place": "Clausthal"
      },
      "death": {
        "date": "1910-05-27",
        "place": "Baden-Baden"
      },
      "facts": [
        "Koch's postulates"
      ],
      "links": {
        "wikipedia": "https://en.wikipedia.org/wiki/Robert_Koch",
        "wikidata": "https://www.wikidata.org/wiki/Q37193"
      }
    }
  },
  {
    "id": "Q8763",
    "name": "Fibonacci",
    "lat": 43.716666666,
    "lng": 10.4,
    "deathLat": 43.716666666,
    "deathLng": 10.4,
    "card": {
      "image": {
        "url": "https://commons.wikimedia.org/wiki/Special:FilePath/Fibonacci5.jpg",
        "thumbUrl": "https://commons.wikimedia.org/wiki/Special:FilePath/Fibonacci5.jpg?width=400"
      },
      "summary": "Italian mathematician (c.1170–c.1240/50)",
      "birth": {
        "date": "1170-01-01",
        "place": "Pisa"
      },
      "death": {
        "date": "1240-01-01",
        "place": "Pisa"
      },
      "facts": [
        "Liber Abaci"
      ],
      "links": {
        "wikipedia": "https://en.wikipedia.org/wiki/Fibonacci",
        "wikidata": "https://www.wikidata.org/wiki/Q8763"
      }
    }
  },
  {
    "id": "Q202943",
    "name": "Brahmagupta",
    "lat": 25,
    "lng": 72.25,
    "deathLat": 23.182777777,
    "deathLng": 75.777222222,
    "card": {
      "summary": "Indian mathematician and astronomer (c. 598 – c. 668 CE)",
      "birth": {
        "date": "0598-01-01",
        "place": "Bhinmal"
      },
      "death": {
        "date": "0670-01-01",
        "place": "Ujjain"
      },
      "facts": [
        "Brahmagupta–Fibonacci identity",
        "Brahmagupta's formula",
        "Brāhmasphuṭasiddhānta",
        "Brahmagupta theorem",
        "Brahmagupta polynomial"
      ],
      "links": {
        "wikipedia": "https://en.wikipedia.org/wiki/Brahmagupta",
        "wikidata": "https://www.wikidata.org/wiki/Q202943"
      }
    }
  },
  {
    "id": "Q42985",
    "name": "Ivan Pavlov",
    "lat": 54.63,
    "lng": 39.7425,
    "deathLat": 59.95,
    "deathLng": 30.316666666,
    "card": {
      "image": {
        "url": "https://commons.wikimedia.org/wiki/Special:FilePath/Ivan%20Pavlov%20NLM3.jpg",
        "thumbUrl": "https://commons.wikimedia.org/wiki/Special:FilePath/Ivan%20Pavlov%20NLM3.jpg?width=400"
      },
      "summary": "Russian physiologist (1849-1936)",
      "birth": {
        "date": "1849-09-26",
        "place": "Ryazan"
      },
      "death": {
        "date": "1936-02-27",
        "place": "Saint Petersburg"
      },
      "facts": [],
      "links": {
        "wikipedia": "https://en.wikipedia.org/wiki/Ivan_Pavlov",
        "wikidata": "https://www.wikidata.org/wiki/Q42985"
      }
    }
  },
  {
    "id": "Q47480",
    "name": "Paul Adrien Maurice Dirac",
    "lat": 51.453611111,
    "lng": -2.5975,
    "deathLat": 30.438333333,
    "deathLng": -84.280555555,
    "card": {
      "image": {
        "url": "https://commons.wikimedia.org/wiki/Special:FilePath/Paul%20Dirac%2C%201933.jpg",
        "thumbUrl": "https://commons.wikimedia.org/wiki/Special:FilePath/Paul%20Dirac%2C%201933.jpg?width=400"
      },
      "summary": "British theoretical physicist (1902–1984)",
      "birth": {
        "date": "1902-08-08",
        "place": "Bristol"
      },
      "death": {
        "date": "1984-10-20",
        "place": "Tallahassee"
      },
      "facts": [
        "Dirac delta function",
        "Complete Fermi–Dirac integral",
        "Dirac equation",
        "Dirac measure",
        "Dirac sea"
      ],
      "links": {
        "wikipedia": "https://en.wikipedia.org/wiki/Paul_Dirac",
        "wikidata": "https://www.wikidata.org/wiki/Q47480"
      }
    }
  },
  {
    "id": "Q39978",
    "name": "Nostradamus",
    "lat": 43.789444444,
    "lng": 4.831666666,
    "deathLat": 43.640555555,
    "deathLng": 5.097222222,
    "card": {
      "image": {
        "url": "https://commons.wikimedia.org/wiki/Special:FilePath/Nostradamus%201846.jpg",
        "thumbUrl": "https://commons.wikimedia.org/wiki/Special:FilePath/Nostradamus%201846.jpg?width=400"
      },
      "summary": "French seer and astrologer (1503–1566)",
      "birth": {
        "date": "1503-12-24",
        "place": "Saint-Rémy-de-Provence"
      },
      "death": {
        "date": "1566-07-12",
        "place": "Salon-de-Provence"
      },
      "facts": [
        "Prognostication"
      ],
      "links": {
        "wikipedia": "https://en.wikipedia.org/wiki/Nostradamus",
        "wikidata": "https://www.wikidata.org/wiki/Q39978"
      }
    }
  },
  {
    "id": "Q17455",
    "name": "John von Neumann",
    "lat": 47.498333333,
    "lng": 19.040833333,
    "deathLat": 38.895,
    "deathLng": -77.036666666,
    "card": {
      "image": {
        "url": "https://commons.wikimedia.org/wiki/Special:FilePath/JohnvonNeumann-LosAlamos.jpg",
        "thumbUrl": "https://commons.wikimedia.org/wiki/Special:FilePath/JohnvonNeumann-LosAlamos.jpg?width=400"
      },
      "summary": "Hungarian and American mathematician and physicist (1903–1957)",
      "birth": {
        "date": "1903-12-28",
        "place": "Budapest"
      },
      "death": {
        "date": "1957-02-08",
        "place": "Washington, D.C."
      },
      "facts": [
        "Von Neumann–Bernays–Gödel set theory",
        "Von Neumann stability analysis",
        "von Neumann universe",
        "von Neumann architecture",
        "minimax theorem"
      ],
      "links": {
        "wikipedia": "https://en.wikipedia.org/wiki/John_von_Neumann",
        "wikidata": "https://www.wikidata.org/wiki/Q17455"
      }
    }
  },
  {
    "id": "Q675",
    "name": "André-Marie Ampère",
    "lat": 45.7675,
    "lng": 4.835,
    "deathLat": 43.296666666,
    "deathLng": 5.376388888,
    "card": {
      "image": {
        "url": "https://commons.wikimedia.org/wiki/Special:FilePath/Ampere%20portrait%20at%20the%20Musee%20Poleymieux.jpg",
        "thumbUrl": "https://commons.wikimedia.org/wiki/Special:FilePath/Ampere%20portrait%20at%20the%20Musee%20Poleymieux.jpg?width=400"
      },
      "summary": "French physicist and mathematician (1775–1836)",
      "birth": {
        "date": "1775-01-20",
        "place": "Lyon"
      },
      "death": {
        "date": "1836-06-10",
        "place": "Marseille"
      },
      "facts": [
        "Ampère's circuital law",
        "Memoir on the Mathematical Theory of Electrodynamic Phenomena, Uniquely Deduced from Experience",
        "Ampère's force law",
        "Monge–Ampère equation"
      ],
      "links": {
        "wikipedia": "https://en.wikipedia.org/wiki/Andr%C3%A9-Marie_Amp%C3%A8re",
        "wikidata": "https://www.wikidata.org/wiki/Q675"
      }
    }
  },
  {
    "id": "Q58978",
    "name": "Max Born",
    "lat": 51.11,
    "lng": 17.0325,
    "deathLat": 51.533888888,
    "deathLng": 9.935555555,
    "card": {
      "image": {
        "url": "https://commons.wikimedia.org/wiki/Special:FilePath/Max%20Born.jpg",
        "thumbUrl": "https://commons.wikimedia.org/wiki/Special:FilePath/Max%20Born.jpg?width=400"
      },
      "summary": "German-Jewish physicist and mathematician (1882–1970)",
      "birth": {
        "date": "1882-12-11",
        "place": "Wrocław"
      },
      "death": {
        "date": "1970-01-05",
        "place": "Göttingen"
      },
      "facts": [
        "Born-Oppenheimer approximation",
        "probability amplitude"
      ],
      "links": {
        "wikipedia": "https://en.wikipedia.org/wiki/Max_Born",
        "wikidata": "https://www.wikidata.org/wiki/Q58978"
      }
    }
  },
  {
    "id": "Q39599",
    "name": "Christiaan Huygens",
    "lat": 52.08,
    "lng": 4.31,
    "deathLat": 52.08,
    "deathLng": 4.31,
    "card": {
      "image": {
        "url": "https://commons.wikimedia.org/wiki/Special:FilePath/Christiaan-huygens4.jpg",
        "thumbUrl": "https://commons.wikimedia.org/wiki/Special:FilePath/Christiaan-huygens4.jpg?width=400"
      },
      "summary": "Dutch mathematician, physicist and astronomer (1629–1695)",
      "birth": {
        "date": "1629-04-14",
        "place": "The Hague"
      },
      "death": {
        "date": "1695-07-08",
        "place": "The Hague"
      },
      "facts": [
        "De Saturni Luna Observatio Nova",
        "Systema Saturnium",
        "De Circuli Magnitudine Inventa",
        "Cosmotheoros",
        "Horologium Oscillatorium"
      ],
      "links": {
        "wikipedia": "https://en.wikipedia.org/wiki/Christiaan_Huygens",
        "wikidata": "https://www.wikidata.org/wiki/Q39599"
      }
    }
  },
  {
    "id": "Q47285",
    "name": "Joseph John Thomson",
    "lat": 53.504,
    "lng": -2.231,
    "deathLat": 52.208055555,
    "deathLng": 0.1225,
    "card": {
      "image": {
        "url": "https://commons.wikimedia.org/wiki/Special:FilePath/J.J.%20Thomson%20LCCN2014715407.jpg",
        "thumbUrl": "https://commons.wikimedia.org/wiki/Special:FilePath/J.J.%20Thomson%20LCCN2014715407.jpg?width=400"
      },
      "summary": "British physicist (1856-1940)",
      "birth": {
        "date": "1856-12-18",
        "place": "Cheetham Hill"
      },
      "death": {
        "date": "1940-08-30",
        "place": "Cambridge"
      },
      "facts": [
        "plum pudding model"
      ],
      "links": {
        "wikipedia": "https://en.wikipedia.org/wiki/J._J._Thomson",
        "wikidata": "https://www.wikidata.org/wiki/Q47285"
      }
    }
  },
  {
    "id": "Q151403",
    "name": "Thomas Carlyle",
    "lat": 55.0616,
    "lng": -3.26424,
    "deathLat": 51.507222222,
    "deathLng": -0.1275,
    "card": {
      "image": {
        "url": "https://commons.wikimedia.org/wiki/Special:FilePath/Thomas%20Carlyle%20by%20Sir%20John%20Everett%20Millais%2C%201st%20Bt.jpg",
        "thumbUrl": "https://commons.wikimedia.org/wiki/Special:FilePath/Thomas%20Carlyle%20by%20Sir%20John%20Everett%20Millais%2C%201st%20Bt.jpg?width=400"
      },
      "summary": "Scottish essayist, historian and philosopher (1795–1881)",
      "birth": {
        "date": "1795-12-04",
        "place": "Ecclefechan"
      },
      "death": {
        "date": "1881-02-05",
        "place": "London"
      },
      "facts": [
        "On Heroes, Hero-Worship, and The Heroic in History",
        "Past and Present",
        "The French Revolution: A History",
        "Occasional Discourse on the Negro Question",
        "Inaugural Address at Edinburgh University"
      ],
      "links": {
        "wikipedia": "https://en.wikipedia.org/wiki/Thomas_Carlyle",
        "wikidata": "https://www.wikidata.org/wiki/Q151403"
      }
    }
  },
  {
    "id": "Q41688",
    "name": "Hendrik Lorentz",
    "lat": 51.983333333,
    "lng": 5.916666666,
    "deathLat": 52.380277777,
    "deathLng": 4.640555555,
    "card": {
      "image": {
        "url": "https://commons.wikimedia.org/wiki/Special:FilePath/H%20A%20Lorentz%20%28Nobel%29.jpg",
        "thumbUrl": "https://commons.wikimedia.org/wiki/Special:FilePath/H%20A%20Lorentz%20%28Nobel%29.jpg?width=400"
      },
      "summary": "Dutch physicist (1853–1928)",
      "birth": {
        "date": "1853-07-18",
        "place": "Arnhem"
      },
      "death": {
        "date": "1928-02-04",
        "place": "Haarlem"
      },
      "facts": [
        "Lorentz force",
        "Lorentz factor",
        "length contraction",
        "Lorentz–Heaviside units",
        "Lorentz group"
      ],
      "links": {
        "wikipedia": "https://en.wikipedia.org/wiki/Hendrik_Lorentz",
        "wikidata": "https://www.wikidata.org/wiki/Q41688"
      }
    }
  },
  {
    "id": "Q680",
    "name": "Alessandro Volta",
    "lat": 45.81025,
    "lng": 9.086138888,
    "deathLat": 45.81025,
    "deathLng": 9.086138888,
    "card": {
      "image": {
        "url": "https://commons.wikimedia.org/wiki/Special:FilePath/Alessandro%20Volta.jpeg",
        "thumbUrl": "https://commons.wikimedia.org/wiki/Special:FilePath/Alessandro%20Volta.jpeg?width=400"
      },
      "summary": "Italian chemist and physicist (1745–1827)",
      "birth": {
        "date": "1745-02-18",
        "place": "Como"
      },
      "death": {
        "date": "1827-03-05",
        "place": "Como"
      },
      "facts": [],
      "links": {
        "wikipedia": "https://en.wikipedia.org/wiki/Alessandro_Volta",
        "wikidata": "https://www.wikidata.org/wiki/Q680"
      }
    }
  },
  {
    "id": "Q60429",
    "name": "Chandrasekhara Venkata Raman",
    "lat": 10.826944444,
    "lng": 78.692777777,
    "deathLat": 12.9791198,
    "deathLng": 77.5912997,
    "card": {
      "image": {
        "url": "https://commons.wikimedia.org/wiki/Special:FilePath/Sir%20CV%20Raman.JPG",
        "thumbUrl": "https://commons.wikimedia.org/wiki/Special:FilePath/Sir%20CV%20Raman.JPG?width=400"
      },
      "summary": "Indian physicist (1888–1970)",
      "birth": {
        "date": "1888-11-07",
        "place": "Tiruchirappalli"
      },
      "death": {
        "date": "1970-11-21",
        "place": "Bengaluru"
      },
      "facts": [
        "Raman scattering"
      ],
      "links": {
        "wikipedia": "https://en.wikipedia.org/wiki/C._V._Raman",
        "wikidata": "https://www.wikidata.org/wiki/Q60429"
      }
    }
  },
  {
    "id": "Q76420",
    "name": "Georg Cantor",
    "lat": 59.95,
    "lng": 30.316666666,
    "deathLat": 51.482777777,
    "deathLng": 11.969722222,
    "card": {
      "image": {
        "url": "https://commons.wikimedia.org/wiki/Special:FilePath/Georg%20Cantor2.jpg",
        "thumbUrl": "https://commons.wikimedia.org/wiki/Special:FilePath/Georg%20Cantor2.jpg?width=400"
      },
      "summary": "German mathematician, inventor of set theory (1845–1918)",
      "birth": {
        "date": "1845-03-03",
        "place": "Saint Petersburg"
      },
      "death": {
        "date": "1918-01-06",
        "place": "Halle (Saale)"
      },
      "facts": [
        "list of things named after Georg Cantor"
      ],
      "links": {
        "wikipedia": "https://en.wikipedia.org/wiki/Georg_Cantor",
        "wikidata": "https://www.wikidata.org/wiki/Q76420"
      }
    }
  },
  {
    "id": "Q75655",
    "name": "Pierre de Fermat",
    "lat": 43.883055555,
    "lng": 0.988333333,
    "deathLat": 43.605833333,
    "deathLng": 2.24,
    "card": {
      "image": {
        "url": "https://commons.wikimedia.org/wiki/Special:FilePath/Pierre%20de%20Fermat3.jpg",
        "thumbUrl": "https://commons.wikimedia.org/wiki/Special:FilePath/Pierre%20de%20Fermat3.jpg?width=400"
      },
      "summary": "French mathematician and lawyer",
      "birth": {
        "date": "1607-01-01",
        "place": "Beaumont-de-Lomagne"
      },
      "death": {
        "date": "1665-01-12",
        "place": "Castres"
      },
      "facts": [
        "Fermat's Last Theorem",
        "Fermat number",
        "Fermat's little theorem",
        "Fermat point",
        "Fermat's principle"
      ],
      "links": {
        "wikipedia": "https://en.wikipedia.org/wiki/Pierre_de_Fermat",
        "wikidata": "https://www.wikidata.org/wiki/Q75655"
      }
    }
  },
  {
    "id": "Q7474",
    "name": "Rosalind Franklin",
    "lat": 51.5096,
    "lng": -0.2043,
    "deathLat": 51.491278,
    "deathLng": -0.172583,
    "card": {
      "image": {
        "url": "https://commons.wikimedia.org/wiki/Special:FilePath/Rosalind%20Franklin.jpg",
        "thumbUrl": "https://commons.wikimedia.org/wiki/Special:FilePath/Rosalind%20Franklin.jpg?width=400"
      },
      "summary": "British chemist, biophysicist, and X-ray crystallographer (1920–1958)",
      "birth": {
        "date": "1920-07-25",
        "place": "Notting Hill"
      },
      "death": {
        "date": "1958-04-16",
        "place": "Royal Marsden Hospital"
      },
      "facts": [],
      "links": {
        "wikipedia": "https://en.wikipedia.org/wiki/Rosalind_Franklin",
        "wikidata": "https://www.wikidata.org/wiki/Q7474"
      }
    }
  },
  {
    "id": "Q46633",
    "name": "Charles Babbage",
    "lat": 51.4898,
    "lng": -0.0905,
    "deathLat": 51.5177,
    "deathLng": -0.147,
    "card": {
      "image": {
        "url": "https://commons.wikimedia.org/wiki/Special:FilePath/Charles%20Babbage%20-%201860.jpg",
        "thumbUrl": "https://commons.wikimedia.org/wiki/Special:FilePath/Charles%20Babbage%20-%201860.jpg?width=400"
      },
      "summary": "English mathematician, philosopher, and engineer (1791–1871)",
      "birth": {
        "date": "1791-12-26",
        "place": "Walworth"
      },
      "death": {
        "date": "1871-10-18",
        "place": "Marylebone"
      },
      "facts": [
        "analytical engine",
        "difference engine",
        "Ninth Bridgewater Treatise",
        "Reflections on the Decline of Science in England, and on Some of Its Causes",
        "On the Economy of Machinery and Manufactures"
      ],
      "links": {
        "wikipedia": "https://en.wikipedia.org/wiki/Charles_Babbage",
        "wikidata": "https://www.wikidata.org/wiki/Q46633"
      }
    }
  },
  {
    "id": "Q43393",
    "name": "Robert Boyle",
    "lat": 52.140555555,
    "lng": -7.9325,
    "deathLat": 51.507222222,
    "deathLng": -0.1275,
    "card": {
      "image": {
        "url": "https://commons.wikimedia.org/wiki/Special:FilePath/The%20Shannon%20Portrait%20of%20the%20Hon%20Robert%20Boyle.jpg",
        "thumbUrl": "https://commons.wikimedia.org/wiki/Special:FilePath/The%20Shannon%20Portrait%20of%20the%20Hon%20Robert%20Boyle.jpg?width=400"
      },
      "summary": "Anglo-Irish natural philosopher, chemist, physicist, and inventor",
      "birth": {
        "date": "1627-01-25",
        "place": "Lismore Castle"
      },
      "death": {
        "date": "1691-12-31",
        "place": "London"
      },
      "facts": [
        "The Sceptical Chymist",
        "Boyle's law",
        "New Experiments Physico-Mechanicall, Touching the Spring of the Air and its Effects"
      ],
      "links": {
        "wikipedia": "https://en.wikipedia.org/wiki/Robert_Boyle",
        "wikidata": "https://www.wikidata.org/wiki/Q43393"
      }
    }
  },
  {
    "id": "Q14277",
    "name": "William Herschel",
    "lat": 52.374444444,
    "lng": 9.738611111,
    "deathLat": 51.509722222,
    "deathLng": -0.593055555,
    "card": {
      "image": {
        "url": "https://commons.wikimedia.org/wiki/Special:FilePath/William%20Herschel01.jpg",
        "thumbUrl": "https://commons.wikimedia.org/wiki/Special:FilePath/William%20Herschel01.jpg?width=400"
      },
      "summary": "German-born British astronomer and composer (1738–1822)",
      "birth": {
        "date": "1738-11-15",
        "place": "Hanover"
      },
      "death": {
        "date": "1822-08-25",
        "place": "Slough"
      },
      "facts": [
        "infrared radiation",
        "Herschel wedge",
        "discovery of Uranus"
      ],
      "links": {
        "wikipedia": "https://en.wikipedia.org/wiki/William_Herschel",
        "wikidata": "https://www.wikidata.org/wiki/Q14277"
      }
    }
  },
  {
    "id": "Q11903",
    "name": "Hypatia",
    "lat": 31.1975,
    "lng": 29.8925,
    "deathLat": 31.1975,
    "deathLng": 29.8925,
    "card": {
      "image": {
        "url": "https://commons.wikimedia.org/wiki/Special:FilePath/Hipatia67.jpg",
        "thumbUrl": "https://commons.wikimedia.org/wiki/Special:FilePath/Hipatia67.jpg?width=400"
      },
      "summary": "Greek Neoplatonist philosopher",
      "birth": {
        "date": "0360-01-01",
        "place": "Alexandria"
      },
      "death": {
        "date": "0415-03-01",
        "place": "Alexandria"
      },
      "facts": [],
      "links": {
        "wikipedia": "https://en.wikipedia.org/wiki/Hypatia",
        "wikidata": "https://www.wikidata.org/wiki/Q11903"
      }
    }
  },
  {
    "id": "Q153232",
    "name": "Jean Le Rond d'Alembert",
    "lat": 48.856666666,
    "lng": 2.352222222,
    "deathLat": 48.856666666,
    "deathLng": 2.352222222,
    "card": {
      "image": {
        "url": "https://commons.wikimedia.org/wiki/Special:FilePath/Jean%20Le%20Rond%20d%27Alembert%2C%20by%20French%20school.jpg",
        "thumbUrl": "https://commons.wikimedia.org/wiki/Special:FilePath/Jean%20Le%20Rond%20d%27Alembert%2C%20by%20French%20school.jpg?width=400"
      },
      "summary": "French mathematician, mechanician, physicist, philosopher and music theorist (1717-1783)",
      "birth": {
        "date": "1717-11-16",
        "place": "Paris"
      },
      "death": {
        "date": "1783-10-29",
        "place": "Paris"
      },
      "facts": [
        "Encyclopédie",
        "Traité de dynamique",
        "d'Alembert operator",
        "ratio test",
        "D'Alembert's equation"
      ],
      "links": {
        "wikipedia": "https://en.wikipedia.org/wiki/Jean_Le_Rond_d%27Alembert",
        "wikidata": "https://www.wikidata.org/wiki/Q153232"
      }
    }
  },
  {
    "id": "Q80064",
    "name": "Elias Canetti",
    "lat": 43.844532,
    "lng": 25.953907,
    "deathLat": 47.374444444,
    "deathLng": 8.541111111,
    "card": {
      "image": {
        "url": "https://commons.wikimedia.org/wiki/Special:FilePath/Elias%20Canetti%202.jpg",
        "thumbUrl": "https://commons.wikimedia.org/wiki/Special:FilePath/Elias%20Canetti%202.jpg?width=400"
      },
      "summary": "Bulgarian-born Swiss and British Jewish modernist novelist, playwright, memoirist, and non-fiction writer (1905–1994)",
      "birth": {
        "date": "1905-07-25",
        "place": "Ruse"
      },
      "death": {
        "date": "1994-08-14",
        "place": "Zurich"
      },
      "facts": [
        "Auto-da-Fé",
        "Tongue Set Free",
        "Crowds and Power",
        "The Numbered"
      ],
      "links": {
        "wikipedia": "https://en.wikipedia.org/wiki/Elias_Canetti",
        "wikidata": "https://www.wikidata.org/wiki/Q80064"
      }
    }
  },
  {
    "id": "Q41284",
    "name": "John Dalton",
    "lat": 54.75,
    "lng": -3,
    "deathLat": 53.466666666,
    "deathLng": -2.233333333,
    "card": {
      "image": {
        "url": "https://commons.wikimedia.org/wiki/Special:FilePath/John%20Dalton.%20Line%20engraving%20by%20W.%20H.%20Worthington%2C%201823%2C%20afte%20Wellcome%20V0006489.jpg",
        "thumbUrl": "https://commons.wikimedia.org/wiki/Special:FilePath/John%20Dalton.%20Line%20engraving%20by%20W.%20H.%20Worthington%2C%201823%2C%20afte%20Wellcome%20V0006489.jpg?width=400"
      },
      "summary": "British chemist and mathematician (1766–1844)",
      "birth": {
        "date": "1766-09-06",
        "place": "Cumberland"
      },
      "death": {
        "date": "1844-07-27",
        "place": "Manchester"
      },
      "facts": [
        "color blindness",
        "Dalton's law",
        "law of multiple proportions",
        "dalton",
        "History of atomic theory"
      ],
      "links": {
        "wikipedia": "https://en.wikipedia.org/wiki/John_Dalton",
        "wikidata": "https://www.wikidata.org/wiki/Q41284"
      }
    }
  },
  {
    "id": "Q997",
    "name": "Andrei Sakharov",
    "lat": 55.750555555,
    "lng": 37.6175,
    "deathLat": 55.750555555,
    "deathLng": 37.6175,
    "card": {
      "image": {
        "url": "https://commons.wikimedia.org/wiki/Special:FilePath/RIAN%20archive%2025981%20Academician%20Sakharov.jpg",
        "thumbUrl": "https://commons.wikimedia.org/wiki/Special:FilePath/RIAN%20archive%2025981%20Academician%20Sakharov.jpg?width=400"
      },
      "summary": "Soviet nuclear physicist and human rights activist (1921–1989)",
      "birth": {
        "date": "1921-05-21",
        "place": "Moscow"
      },
      "death": {
        "date": "1989-12-14",
        "place": "Moscow"
      },
      "facts": [],
      "links": {
        "wikipedia": "https://en.wikipedia.org/wiki/Andrei_Sakharov",
        "wikidata": "https://www.wikidata.org/wiki/Q997"
      }
    }
  },
  {
    "id": "Q83041",
    "name": "Anaxagoras",
    "lat": 38.35816667,
    "lng": 26.76758333,
    "deathLat": 40.343889,
    "deathLng": 26.683611,
    "card": {
      "image": {
        "url": "https://commons.wikimedia.org/wiki/Special:FilePath/Anaxagoras%20Lebiedzki%20Rahl.jpg",
        "thumbUrl": "https://commons.wikimedia.org/wiki/Special:FilePath/Anaxagoras%20Lebiedzki%20Rahl.jpg?width=400"
      },
      "summary": "5th-century BC Greek philosopher",
      "birth": {
        "date": "-0499-01-01",
        "place": "Klazomenai"
      },
      "death": {
        "date": "-0427-01-01",
        "place": "Lampsacus"
      },
      "facts": [],
      "links": {
        "wikipedia": "https://en.wikipedia.org/wiki/Anaxagoras",
        "wikidata": "https://www.wikidata.org/wiki/Q83041"
      }
    }
  },
  {
    "id": "Q41257",
    "name": "Heinrich Hertz",
    "lat": 53.55,
    "lng": 10,
    "deathLat": 50.735277777,
    "deathLng": 7.102222222,
    "card": {
      "image": {
        "url": "https://commons.wikimedia.org/wiki/Special:FilePath/HEINRICH%20HERTZ.JPG",
        "thumbUrl": "https://commons.wikimedia.org/wiki/Special:FilePath/HEINRICH%20HERTZ.JPG?width=400"
      },
      "summary": "German physicist (1857–1894)",
      "birth": {
        "date": "1857-02-22",
        "place": "Hamburg"
      },
      "death": {
        "date": "1894-01-01",
        "place": "Bonn"
      },
      "facts": [],
      "links": {
        "wikipedia": "https://en.wikipedia.org/wiki/Heinrich_Hertz",
        "wikidata": "https://www.wikidata.org/wiki/Q41257"
      }
    }
  },
  {
    "id": "Q48983",
    "name": "Linus Pauling",
    "lat": 45.515,
    "lng": -122.679166666,
    "deathLat": 36.1075,
    "deathLng": -121.625833333,
    "card": {
      "image": {
        "url": "https://commons.wikimedia.org/wiki/Special:FilePath/Linus%20Pauling%201962.jpg",
        "thumbUrl": "https://commons.wikimedia.org/wiki/Special:FilePath/Linus%20Pauling%201962.jpg?width=400"
      },
      "summary": "American scientist (1901–1994)",
      "birth": {
        "date": "1901-02-28",
        "place": "Portland"
      },
      "death": {
        "date": "1994-08-19",
        "place": "Big Sur"
      },
      "facts": [],
      "links": {
        "wikipedia": "https://en.wikipedia.org/wiki/Linus_Pauling",
        "wikidata": "https://www.wikidata.org/wiki/Q48983"
      }
    }
  },
  {
    "id": "Q41390",
    "name": "Kurt Gödel",
    "lat": 49.195277777,
    "lng": 16.608333333,
    "deathLat": 40.352222222,
    "deathLng": -74.656944444,
    "card": {
      "image": {
        "url": "https://commons.wikimedia.org/wiki/Special:FilePath/Young%20Kurt%20G%C3%B6del%20as%20a%20student%20in%201925.jpg",
        "thumbUrl": "https://commons.wikimedia.org/wiki/Special:FilePath/Young%20Kurt%20G%C3%B6del%20as%20a%20student%20in%201925.jpg?width=400"
      },
      "summary": "Austrian-American logician, mathematician, and philosopher of mathematics (1906–1978)",
      "birth": {
        "date": "1906-04-28",
        "place": "Brno"
      },
      "death": {
        "date": "1978-01-14",
        "place": "Princeton"
      },
      "facts": [
        "Gödel's ontological proof",
        "Gödel's incompleteness theorems",
        "Gödel-incomplete machine",
        "Gödel's second incompleteness theorem",
        "Godel's first incompleteness theorem"
      ],
      "links": {
        "wikipedia": "https://en.wikipedia.org/wiki/Kurt_G%C3%B6del",
        "wikidata": "https://www.wikidata.org/wiki/Q41390"
      }
    }
  },
  {
    "id": "Q42458",
    "name": "Anaximander",
    "lat": 37.530233,
    "lng": 27.278369,
    "deathLat": 37.530233,
    "deathLng": 27.278369,
    "card": {
      "image": {
        "url": "https://commons.wikimedia.org/wiki/Special:FilePath/Anaximander.jpg",
        "thumbUrl": "https://commons.wikimedia.org/wiki/Special:FilePath/Anaximander.jpg?width=400"
      },
      "summary": "pre-Socratic Greek philosopher",
      "birth": {
        "date": "-0609-01-01",
        "place": "Miletus"
      },
      "death": {
        "date": "-0545-01-01",
        "place": "Miletus"
      },
      "facts": [
        "apeiron"
      ],
      "links": {
        "wikipedia": "https://en.wikipedia.org/wiki/Anaximander",
        "wikidata": "https://www.wikidata.org/wiki/Q42458"
      }
    }
  },
  {
    "id": "Q41269",
    "name": "Antoine Henri Becquerel",
    "lat": 48.856666666,
    "lng": 2.352222222,
    "deathLat": 47.280578,
    "deathLng": -2.504748,
    "card": {
      "image": {
        "url": "https://commons.wikimedia.org/wiki/Special:FilePath/Paul%20Nadar%20-%20Henri%20Becquerel.jpg",
        "thumbUrl": "https://commons.wikimedia.org/wiki/Special:FilePath/Paul%20Nadar%20-%20Henri%20Becquerel.jpg?width=400"
      },
      "summary": "French physicist (1852–1908)",
      "birth": {
        "date": "1852-12-15",
        "place": "Paris"
      },
      "death": {
        "date": "1908-08-25",
        "place": "manoir de Pen Castel"
      },
      "facts": [
        "natural radioactivity"
      ],
      "links": {
        "wikipedia": "https://en.wikipedia.org/wiki/Henri_Becquerel",
        "wikidata": "https://www.wikidata.org/wiki/Q41269"
      }
    }
  },
  {
    "id": "Q43182",
    "name": "Eratosthenes",
    "lat": 32.816666666,
    "lng": 21.85,
    "deathLat": 31.1975,
    "deathLng": 29.8925,
    "card": {
      "image": {
        "url": "https://commons.wikimedia.org/wiki/Special:FilePath/Eratosthenes.jpg",
        "thumbUrl": "https://commons.wikimedia.org/wiki/Special:FilePath/Eratosthenes.jpg?width=400"
      },
      "summary": "Greek mathematician, geographer, poet, astronomer, librarian and music theorist",
      "birth": {
        "date": "-0275-01-01",
        "place": "Cyrene"
      },
      "death": {
        "date": "-0193-01-01",
        "place": "Alexandria"
      },
      "facts": [
        "sieve of Eratosthenes",
        "Catasterismi"
      ],
      "links": {
        "wikipedia": "https://en.wikipedia.org/wiki/Eratosthenes",
        "wikidata": "https://www.wikidata.org/wiki/Q43182"
      }
    }
  },
  {
    "id": "Q11826",
    "name": "Al-Biruni",
    "lat": 41.655833,
    "lng": 60.3025,
    "deathLat": 33.549166666,
    "deathLng": 68.423333333,
    "card": {
      "image": {
        "url": "https://commons.wikimedia.org/wiki/Special:FilePath/Al-Biruni.jpg",
        "thumbUrl": "https://commons.wikimedia.org/wiki/Special:FilePath/Al-Biruni.jpg?width=400"
      },
      "summary": "11th-century Persian scholar and polymath (973–1048)",
      "birth": {
        "date": "0973-09-09",
        "place": "Kath"
      },
      "death": {
        "date": "1048-12-15",
        "place": "Ghazni"
      },
      "facts": [
        "Al-Tafhim",
        "The Remaining Signs of Past Centuries",
        "Kitab Al-Djamahir Fi Maârifati Al-Djawahir",
        "al-Qānūn al-Maʻsudī",
        "Al-Biruni's India"
      ],
      "links": {
        "wikipedia": "https://en.wikipedia.org/wiki/Al-Biruni",
        "wikidata": "https://www.wikidata.org/wiki/Q11826"
      }
    }
  },
  {
    "id": "Q83333",
    "name": "James Watson",
    "lat": 41.881944444,
    "lng": -87.627777777,
    "deathLat": 40.8792,
    "deathLng": -73.3242,
    "card": {
      "image": {
        "url": "https://commons.wikimedia.org/wiki/Special:FilePath/James%20D.%20Watson%20LCCN2007680359.jpg",
        "thumbUrl": "https://commons.wikimedia.org/wiki/Special:FilePath/James%20D.%20Watson%20LCCN2007680359.jpg?width=400"
      },
      "summary": "American molecular biologist, geneticist, zoologist and Nobel Laureate (1928–2025)",
      "birth": {
        "date": "1928-04-06",
        "place": "Chicago"
      },
      "death": {
        "date": "2025-11-06",
        "place": "East Northport"
      },
      "facts": [
        "The Double Helix",
        "Molecular Biology of the Gene"
      ],
      "links": {
        "wikipedia": "https://en.wikipedia.org/wiki/James_Watson",
        "wikidata": "https://www.wikidata.org/wiki/Q83333"
      }
    }
  },
  {
    "id": "Q7504",
    "name": "Irène Joliot-Curie",
    "lat": 48.832222222,
    "lng": 2.355555555,
    "deathLat": 48.856666666,
    "deathLng": 2.352222222,
    "card": {
      "image": {
        "url": "https://commons.wikimedia.org/wiki/Special:FilePath/Joliot-curie.jpg",
        "thumbUrl": "https://commons.wikimedia.org/wiki/Special:FilePath/Joliot-curie.jpg?width=400"
      },
      "summary": "French scientist (1897–1956)",
      "birth": {
        "date": "1897-09-12",
        "place": "13th arrondissement of Paris"
      },
      "death": {
        "date": "1956-03-17",
        "place": "Paris"
      },
      "facts": [],
      "links": {
        "wikipedia": "https://en.wikipedia.org/wiki/Ir%C3%A8ne_Joliot-Curie",
        "wikidata": "https://www.wikidata.org/wiki/Q7504"
      }
    }
  },
  {
    "id": "Q42299",
    "name": "Bernhard Riemann",
    "lat": 53.039335,
    "lng": 11.060529,
    "deathLat": 45.943333333,
    "deathLng": 8.591666666,
    "card": {
      "image": {
        "url": "https://commons.wikimedia.org/wiki/Special:FilePath/Georg%20Friedrich%20Bernhard%20Riemann.jpeg",
        "thumbUrl": "https://commons.wikimedia.org/wiki/Special:FilePath/Georg%20Friedrich%20Bernhard%20Riemann.jpeg?width=400"
      },
      "summary": "German mathematician (1826–1866)",
      "birth": {
        "date": "1826-09-17",
        "place": "Breselenz"
      },
      "death": {
        "date": "1866-07-20",
        "place": "Selasca"
      },
      "facts": [
        "Riemann zeta function",
        "Riemannian geometry",
        "Riemannian manifold",
        "Riemann hypothesis",
        "Ueber die Hypothesen, welche der Geometrie zu Grunde liegen"
      ],
      "links": {
        "wikipedia": "https://en.wikipedia.org/wiki/Bernhard_Riemann",
        "wikidata": "https://www.wikidata.org/wiki/Q42299"
      }
    }
  },
  {
    "id": "Q83163",
    "name": "Srinivasa Ramanujan",
    "lat": 11.340833333,
    "lng": 77.717222222,
    "deathLat": 10.966666666,
    "deathLng": 79.383333333,
    "card": {
      "image": {
        "url": "https://commons.wikimedia.org/wiki/Special:FilePath/Srinivasa%20Ramanujan%20-%20OPC%20-%202%20%28cleaned%29.jpg",
        "thumbUrl": "https://commons.wikimedia.org/wiki/Special:FilePath/Srinivasa%20Ramanujan%20-%20OPC%20-%202%20%28cleaned%29.jpg?width=400"
      },
      "summary": "Indian mathematician (1887–1920)",
      "birth": {
        "date": "1887-12-22",
        "place": "Erode"
      },
      "death": {
        "date": "1920-04-26",
        "place": "Kudanthaiyan"
      },
      "facts": [
        "Ramanujan–Soldner constant",
        "Ramanujan theta function",
        "Landau–Ramanujan constant",
        "Ramanujan–Nagell equation",
        "taxicab number"
      ],
      "links": {
        "wikipedia": "https://en.wikipedia.org/wiki/Srinivasa_Ramanujan",
        "wikidata": "https://www.wikidata.org/wiki/Q83163"
      }
    }
  },
  {
    "id": "Q43522",
    "name": "Antonie van Leeuwenhoek",
    "lat": 52.011666666,
    "lng": 4.359166666,
    "deathLat": 52.011666666,
    "deathLng": 4.359166666,
    "card": {
      "image": {
        "url": "https://commons.wikimedia.org/wiki/Special:FilePath/Portret%20van%20Antonie%20van%20Leeuwenhoek%2C%20RP-P-1903-A-23563.jpg",
        "thumbUrl": "https://commons.wikimedia.org/wiki/Special:FilePath/Portret%20van%20Antonie%20van%20Leeuwenhoek%2C%20RP-P-1903-A-23563.jpg?width=400"
      },
      "summary": "Dutch scientist known as \"the Father of Microbiology\", and one of the first microscopists (1632–1723)",
      "birth": {
        "date": "1632-10-24",
        "place": "Delft"
      },
      "death": {
        "date": "1723-08-26",
        "place": "Delft"
      },
      "facts": [],
      "links": {
        "wikipedia": "https://en.wikipedia.org/wiki/Antonie_van_Leeuwenhoek",
        "wikidata": "https://www.wikidata.org/wiki/Q43522"
      }
    }
  },
  {
    "id": "Q58720",
    "name": "Mikhail Lomonosov",
    "lat": 64.229958,
    "lng": 41.733568,
    "deathLat": 59.95,
    "deathLng": 30.316666666,
    "card": {
      "image": {
        "url": "https://commons.wikimedia.org/wiki/Special:FilePath/M.V.%20Lomonosov%20by%20L.Miropolskiy%20after%20G.C.Prenner%20%281787%2C%20RAN%29.jpg",
        "thumbUrl": "https://commons.wikimedia.org/wiki/Special:FilePath/M.V.%20Lomonosov%20by%20L.Miropolskiy%20after%20G.C.Prenner%20%281787%2C%20RAN%29.jpg?width=400"
      },
      "summary": "Russian polymath (1711-1765)",
      "birth": {
        "date": "1711-11-19",
        "place": "Mishaninskaya"
      },
      "death": {
        "date": "1765-04-15",
        "place": "Saint Petersburg"
      },
      "facts": [],
      "links": {
        "wikipedia": "https://en.wikipedia.org/wiki/Mikhail_Lomonosov",
        "wikidata": "https://www.wikidata.org/wiki/Q58720"
      }
    }
  },
  {
    "id": "Q82122",
    "name": "Jean-Baptiste de Lamarck",
    "lat": 50.030277777,
    "lng": 2.763055555,
    "deathLat": 48.856666666,
    "deathLng": 2.352222222,
    "card": {
      "image": {
        "url": "https://commons.wikimedia.org/wiki/Special:FilePath/Jean-Baptiste%20de%20Lamarck.jpg",
        "thumbUrl": "https://commons.wikimedia.org/wiki/Special:FilePath/Jean-Baptiste%20de%20Lamarck.jpg?width=400"
      },
      "summary": "French naturalist (1744-1829)",
      "birth": {
        "date": "1744-08-01",
        "place": "Bazentin"
      },
      "death": {
        "date": "1829-12-18",
        "place": "Paris"
      },
      "facts": [],
      "links": {
        "wikipedia": "https://en.wikipedia.org/wiki/Jean-Baptiste_Lamarck",
        "wikidata": "https://www.wikidata.org/wiki/Q82122"
      }
    }
  },
  {
    "id": "Q57384",
    "name": "Wernher von Braun",
    "lat": 53.15,
    "lng": 17.266666666,
    "deathLat": 38.804722222,
    "deathLng": -77.047222222,
    "card": {
      "image": {
        "url": "https://commons.wikimedia.org/wiki/Special:FilePath/Wernher%20von%20Braun.jpg",
        "thumbUrl": "https://commons.wikimedia.org/wiki/Special:FilePath/Wernher%20von%20Braun.jpg?width=400"
      },
      "summary": "German and later American aerospace engineer and space architect (1912–1977)",
      "birth": {
        "date": "1912-03-23",
        "place": "Wyrzysk"
      },
      "death": {
        "date": "1977-06-16",
        "place": "Alexandria"
      },
      "facts": [],
      "links": {
        "wikipedia": "https://en.wikipedia.org/wiki/Wernher_von_Braun",
        "wikidata": "https://www.wikidata.org/wiki/Q57384"
      }
    }
  },
  {
    "id": "Q160627",
    "name": "Alfred Russel Wallace",
    "lat": 51.703611111,
    "lng": -2.901944444,
    "deathLat": 50.76046,
    "deathLng": -1.99495,
    "card": {
      "image": {
        "url": "https://commons.wikimedia.org/wiki/Special:FilePath/Alfred-Russel-Wallace-c1895.jpg",
        "thumbUrl": "https://commons.wikimedia.org/wiki/Special:FilePath/Alfred-Russel-Wallace-c1895.jpg?width=400"
      },
      "summary": "British naturalist, explorer, geographer, anthropologist and biologist (1823–1913)",
      "birth": {
        "date": "1823-01-08",
        "place": "Usk"
      },
      "death": {
        "date": "1913-11-07",
        "place": "Broadstone"
      },
      "facts": [
        "Land Nationalisation Society"
      ],
      "links": {
        "wikipedia": "https://en.wikipedia.org/wiki/Alfred_Russel_Wallace",
        "wikidata": "https://www.wikidata.org/wiki/Q160627"
      }
    }
  },
  {
    "id": "Q83428",
    "name": "Paracelsus",
    "lat": 47.301944444,
    "lng": 8.690555555,
    "deathLat": 47.8,
    "deathLng": 13.045,
    "card": {
      "image": {
        "url": "https://commons.wikimedia.org/wiki/Special:FilePath/Paracelsus.jpg",
        "thumbUrl": "https://commons.wikimedia.org/wiki/Special:FilePath/Paracelsus.jpg?width=400"
      },
      "summary": "Swiss physician, philosopher, theologian, and alchemist (c. 1493–1541)",
      "birth": {
        "date": "1493-11-19",
        "place": "Egg"
      },
      "death": {
        "date": "1541-10-04",
        "place": "Salzburg"
      },
      "facts": [],
      "links": {
        "wikipedia": "https://en.wikipedia.org/wiki/Paracelsus",
        "wikidata": "https://www.wikidata.org/wiki/Q83428"
      }
    }
  },
  {
    "id": "Q128736",
    "name": "John Forbes Nash",
    "lat": 37.262222222,
    "lng": -81.218611111,
    "deathLat": 40.3195,
    "deathLng": -74.4288,
    "card": {
      "image": {
        "url": "https://commons.wikimedia.org/wiki/Special:FilePath/John%20Forbes%20Nash%2C%20Jr.%20by%20Peter%20Badge.jpg",
        "thumbUrl": "https://commons.wikimedia.org/wiki/Special:FilePath/John%20Forbes%20Nash%2C%20Jr.%20by%20Peter%20Badge.jpg?width=400"
      },
      "summary": "American mathematician and economist (1928–2015)",
      "birth": {
        "date": "1928-06-13",
        "place": "Bluefield"
      },
      "death": {
        "date": "2015-05-23",
        "place": "Monroe Township"
      },
      "facts": [
        "Nash equilibrium",
        "Hilbert's nineteenth problem",
        "Nash functions",
        "Nash–Moser theorem",
        "Nash embedding theorem"
      ],
      "links": {
        "wikipedia": "https://en.wikipedia.org/wiki/John_Forbes_Nash_Jr.",
        "wikidata": "https://www.wikidata.org/wiki/Q128736"
      }
    }
  },
  {
    "id": "Q127234",
    "name": "Albert Abraham Michelson",
    "lat": 52.629444444,
    "lng": 18.17,
    "deathLat": 34.1475,
    "deathLng": -118.143888888,
    "card": {
      "image": {
        "url": "https://commons.wikimedia.org/wiki/Special:FilePath/Albert%20Abraham%20Michelson2.jpg",
        "thumbUrl": "https://commons.wikimedia.org/wiki/Special:FilePath/Albert%20Abraham%20Michelson2.jpg?width=400"
      },
      "summary": "American physicist (1852–1931)",
      "birth": {
        "date": "1852-12-19",
        "place": "Strzelno"
      },
      "death": {
        "date": "1931-05-09",
        "place": "Pasadena"
      },
      "facts": [],
      "links": {
        "wikipedia": "https://en.wikipedia.org/wiki/Albert_A._Michelson",
        "wikidata": "https://www.wikidata.org/wiki/Q127234"
      }
    }
  },
  {
    "id": "Q13526",
    "name": "Thomas Robert Malthus",
    "lat": 51.2242,
    "lng": -0.3617,
    "deathLat": 51.381388888,
    "deathLng": -2.359722222,
    "card": {
      "image": {
        "url": "https://commons.wikimedia.org/wiki/Special:FilePath/Thomas%20Robert%20Malthus%20Wellcome%20L0069037%20-crop.jpg",
        "thumbUrl": "https://commons.wikimedia.org/wiki/Special:FilePath/Thomas%20Robert%20Malthus%20Wellcome%20L0069037%20-crop.jpg?width=400"
      },
      "summary": "British political economist (1766–1834)",
      "birth": {
        "date": "1766-02-13",
        "place": "Westcott"
      },
      "death": {
        "date": "1834-12-23",
        "place": "Bath"
      },